Application Number,Facility Name,County,Facility Type,Keph Level,latitude,longitude,geocoded_address,geocoding_status,matched_county
CN-10025,MATIBABU FOUNDATION HOSPITAL UGUNJA CLINIC,SIAYA,PRIVATE,LEVEL 2,0.192077514658,34.339569154802,"Ugunja, Siaya",Success,
CN-10047,MERCILIN AFYA SERVICES-MLOLONGO,MACHAKOS,PRIVATE,LEVEL 2,-1.39639,36.94028,"Mlolongo, Machakos",Success,
CN-10056,SIHA NJEMA HOSPITAL,MERU,PRIVATE,LEVEL 2,0.2289212,37.9464346,Hospital,Success,
CN-10107,TAHRIR HEALTHCARE SERVICES LIMITED,MANDERA,PRIVATE,LEVEL 3B,3.370055804436,40.694029088396,Mandera,Success,
CN-10112,INTERNATIONAL OPTICA LAMU,MOMBASA,PRIVATE,LEVEL 2,-4.0574645,39.663945,Mombasa,Success,
CN-10138,OAKLAND MEDICAL CENTRE,NAKURU,PRIVATE,LEVEL 3B,-0.2845127,36.0695371,Meridian Medical Centre,Success,
CN-10224,SLENMARK MEDICAL CLINIC,KIRINYAGA,PRIVATE,LEVEL 3A,-0.525012949373,37.320744609382,Kirinyaga,Success,
CN-10239,MULATYA MEMORIAL HOSPITAL,MAKUENI,PRIVATE,LEVEL 4,-2.160192128139,37.789123486634,Makueni,Success,
CN-10247,GERMAN MEDICAL CENTRE LTD,NAIROBI,PRIVATE,LEVEL 4,-1.2697736,36.845211,Park Medical Center Ltd,Success,
CN-10257,FLODER MEDICAL CENTRE,KIRINYAGA,PRIVATE,LEVEL 3A,-0.525012949373,37.320744609382,Kirinyaga,Success,
CN-10291,PENDA MEDICAL CENTRE SUNTON,NAIROBI,PRIVATE,LEVEL 3A,-1.31244,36.79729,Medical Centre,Success,
CN-10295,MOYALE MADINA MEDICAL AND SURGICAL CLINIC,MARSABIT,PRIVATE,LEVEL 2,3.15457369504,38.82767749883,"Moyale, Marsabit",Success,
CN-10296,WESPRAM MEDICAL CENTRE,SIAYA,PRIVATE,LEVEL 3A,-0.06564696176,34.248353736491,Siaya,Success,
CN-10299,ST. THOMAS MATERNITY HOSPITAL,MOMBASA,PRIVATE,LEVEL 4,-4.0648846,39.6647572,Seaside Hospital & Maternity,Success,
CN-10314,BONDO BARKOWINO MEDICAL CENTRE LTD,SIAYA,PRIVATE,LEVEL 2,-0.16678600224,34.122756999572,"Bondo, Siaya",Success,
CN-10368,DORAN LIFE CARE CENTRE,KAKAMEGA,PRIVATE,LEVEL 3B,0.28422,34.75229,Kakamega,Success,
CN-10406,FREEDOM OF LIFE MED CLINIC,MERU,PRIVATE,LEVEL 2,0.166838927273,37.764590845633,Meru,Success,
CN-10430,SAVANNAH HEALTHCARE SERVICES,NAIROBI,PRIVATE,LEVEL 2,-1.29783,36.89574,"Savannah, Nairobi",Success,
CN-10440,RELSUN MEDICAL CLINIC,KERICHO,PRIVATE,LEVEL 2,-0.389505,35.011687,Sondu Medical Clinic,Success,
CN-10459,BUNGOMA WEST HOSPITAL,BUNGOMA,PRIVATE,LEVEL 5,0.5926251,34.5520025,Bungoma West Hospital,Success,
CN-10492,AGISO HEALTHCARE,HOMA BAY,PRIVATE,LEVEL 3B,-0.545235884388,34.356395993113,Homa Bay,Success,
CN-10501,RAVINE GLORY HEALTHCARE SERVICES,BARINGO,PRIVATE,LEVEL 3A,0.671904478344,35.940931127722,Baringo,Success,
CN-10551,STAR SPECIALIST HOSPITAL LIMITED,KILIFI,PRIVATE,LEVEL 4,-3.176503150822,39.68804728776,Kilifi,Success,
CN-10563,KING SOLOMON MEDICAL CENTER LIMITED,NAROK,PRIVATE,LEVEL 2,-1.257270424837,35.575800972424,Narok,Success,
CN-10564,EASTGATE MEDICAL CENTRE,MANDERA,PRIVATE,LEVEL 3B,3.370055804436,40.694029088396,Mandera,Success,
CN-10594,MARIAKANI COMMUNITY HEALTHCARE SERVICES.,KILIFI,PRIVATE,LEVEL 3B,-3.862682,39.4729437,"Mariakani, Kilifi",Success,
CN-10598,KYOME HOSPITAL TALA,MACHAKOS,PRIVATE,LEVEL 3B,-1.2674866,37.3189544,"Tala, Machakos",Success,
CN-10626,NYATIEKO -GESUSU HEALTH SERVICES,KISII,PRIVATE,LEVEL 3B,-0.775814232663,34.777005852014,Kisii,Success,
CN-10652,GAKIRA FAMILY HEALTH CARE LIMITED,MURANGA,PRIVATE,LEVEL 3A,-0.6912334,36.9947477,"Gakira, Murang'a",Success,
CN-10671,KIRIMUKUYU MEDICAL CENTRE,NYERI,PRIVATE,LEVEL 2,-0.46667,37.08333,"Kirimukuyu, Nyeri",Success,
CN-10695,FAMLIFE MEDICARE CENTRE LIMITED,NAIROBI,PRIVATE,LEVEL 3A,-1.2857857,36.8200253,Nairobi,Success,
CN-10735,NEW APEX FAMILY HOSPITAL-PANPAPER,KAKAMEGA,PRIVATE,LEVEL 2,0.28422,34.75229,Kakamega,Success,
CN-10758,ST. JAMES LIFE CARE HOSPITAL LIMITED,SIAYA,PRIVATE,LEVEL 4,-0.06564696176,34.248353736491,Siaya,Success,
CN-10806,ULTRA KATHIANI HOSPITAL LIMITED-MITABONI,MACHAKOS,PRIVATE,LEVEL 3A,-1.3757663,37.2513188,"Mitaboni, Machakos",Success,
CN-10812,ST. MARY INTEGRATED MEDICAL CENTRE,NAIROBI,PRIVATE,LEVEL 3B,-1.31244,36.79729,Medical Centre,Success,
CN-10859,PENDA MEDICAL CENTER KANGEMI,NAIROBI,PRIVATE,LEVEL 3A,-1.2658302,36.749316,Kangemi Medical Center,Success,
CN-10920,NEOGLOBAL MEDICARE LIMITED-NURSING HOME,MIGORI,PRIVATE,LEVEL 3B,-0.989136495207,34.364493855317,Migori,Success,
CN-10933,CARLMAX APEX MEDICAL CLINIC,EMBU,PRIVATE,LEVEL 2,-0.5379964,37.4543311,Embu,Success,
CN-10950,NAJRAN MEDICAL CENTRE LIMITED,WAJIR,PRIVATE,LEVEL 3A,1.75504011033,40.017147679353,Wajir,Success,
CN-10973,POLYCARE MEDICAL CLINIC,KITUI,PRIVATE,LEVEL 3A,-1.493161090519,38.407478986946,Kitui,Success,
CN-10978,RFH HEALTHCARE - SYOKIMAU,MACHAKOS,PRIVATE,LEVEL 4,-1.519000804329,37.269607959328,"Syokimau Street, Machakos",Success,
CN-10983,DONKON MEDICAL CLINIC,UASIN GISHU,PRIVATE,LEVEL 2,0.521314476021,35.31977624114,Uasin Gishu,Success,
CN-11083,BEEHIVE MEDICAL SERVICES,MARSABIT,PRIVATE,LEVEL 3A,2.980491275449,37.570848791063,Marsabit,Success,
CN-11125,ENZAI AFYA MEDICAL CLINIC,MAKUENI,PRIVATE,LEVEL 2,-1.8410333,37.3133424,"Enzai, Makueni",Success,
CN-11164,KANAM MEDICARE,TURKANA,PRIVATE,LEVEL 2,3.186636109974,35.449603095023,Turkana,Success,
CN-11166,TAWHEED MEDICAL CLINIC,GARISSA,PRIVATE,LEVEL 2,-0.4786927,39.6467562,Uluma Medical Clinic,Success,
CN-11185,DANID CENTRE FOR CHRONIC ILLNESS LTD,KISUMU,PRIVATE,LEVEL 3A,-0.173053648767,34.839859182104,Kisumu,Success,
CN-11190,DOCTA MAASAI HEALTHCARE,MOMBASA,PRIVATE,LEVEL 2,-4.039617415536,39.653404680851,"Masai Road, Mombasa",Success,
CN-11204,ROBINS HEALTHCARE LIMITED,MERU,PRIVATE,LEVEL 4,0.166838927273,37.764590845633,Meru,Success,
CN-11208,GANJONI HOSPITAL MOMBASA LIMITED,MOMBASA,PRIVATE,LEVEL 4,-4.0636752,39.6598686,Ganjoni Hospital,Success,
CN-11244,EASTERN DEANERY AIDS RELIEF PROGRAM KARIOBANGI CLINIC,NAIROBI,PRIVATE,LEVEL 2,-1.2857857,36.8200253,Nairobi,Success,
CN-11285,AL-AMIN HOSPITAL LIMITED,NAIROBI,PRIVATE,LEVEL 4,-1.3181775,36.8937632,Afrismart Group of Hospitals LTD,Success,
CN-11295,WESTLANDS LASER EYE HOSPITAL LIMITED,NAIROBI,PRIVATE,LEVEL 4,-1.2651922,36.8047738,"Westlands, Nairobi",Success,
CN-11371,NAIVASHA QUALITY HEALTHCARE SERVICES LTD,NAKURU,PRIVATE,LEVEL 3B,-0.868439985172,36.390291585908,"Naivasha, Nakuru",Success,
CN-11415,TUDOR HEALTHCARE - LIKONI,MOMBASA,PRIVATE,LEVEL 2,-4.089917796262,39.626289116205,"Likoni, Mombasa",Success,
CN-11429,DANDELION MEDICAL CENTRE,NAKURU,PRIVATE,LEVEL 3A,-0.2806559,36.0794189,Nakuru,Success,
CN-11501,JOSM MEDICAL CLINIC,THARAKA-NITHI,PRIVATE,LEVEL 2,-0.206516213429,37.868692128983,Tharaka-Nithi,Success,
CN-11502,MAKADARA HEALTH CARE AND MATERNITY HOME,MACHAKOS,PRIVATE,LEVEL 3B,-1.45,36.96667,"Makandara, Machakos",Success,
CN-11510,AFYA RESEARCH AFRICA-UBUNTU AFYA NINALAKESIDE,SIAYA,PRIVATE,LEVEL 2,-0.06564696176,34.248353736491,Siaya,Success,
CN-11517,PENDA MEDICAL CENTRE MATHARE NORTH,NAIROBI,PRIVATE,LEVEL 3A,-1.25596,36.86578,Mathare North Health Center,Success,
CN-11600,PENDA MEDICAL CENTRE UMOJA 1,NAIROBI,PRIVATE,LEVEL 3A,-1.281914,36.8881156,Umoja Health Centre,Success,
CN-11603,NEVLIGHT HOSPITAL LIMITED,MERU,PRIVATE,LEVEL 3A,0.166838927273,37.764590845633,Meru,Success,
CN-11604,GRANTON & DOLLY NURSING HOME LIMITED,EMBU,PRIVATE,LEVEL 3A,-0.5379964,37.4543311,Embu,Success,
CN-11622,CCS MITUNGUU MEDICAL CLINIC,MERU,PRIVATE,LEVEL 2,-0.1080767,37.781236,"Mitunguu, Meru",Success,
CN-11633,GLOBAL OPTIC WEAR,MACHAKOS,PRIVATE,LEVEL 3B,-1.279605613208,37.413530961083,Machakos,Success,
CN-11911,SAIFEE FOUNDATION MEDICAL CENTRE,MOMBASA,PRIVATE,LEVEL 3B,-4.0574645,39.663945,Mombasa,Success,
CN-11940,ORACLE HEALTHCARE LIMITED,KERICHO,PRIVATE,LEVEL 3B,-0.296882276918,35.307304593825,Kericho,Success,
CN-11961,QUALITY DIALYSIS KENYA LTD UPPERHILL,NAIROBI,PRIVATE,LEVEL 4B,-1.2943398,36.790978,"Upper Hill, Kilimani, Nairobi",Success,
CN-11985,SWISS COTTAGE HOSPITAL-MTWAPA,KILIFI,PRIVATE,LEVEL 3B,-3.946128,39.7450722,"Mtwapa, Kilifi",Success,
CN-12013,CHIROMO MENTAL HEALTH HOSPITAL -NAIROBI LIMITED,NAIROBI,PRIVATE,LEVEL 5,-1.2744213,36.8083969,"Chiromo, Kilimani, Nairobi",Success,
CN-12043,MEDIFORTE HOSPITAL CLINIC,NYAMIRA,PRIVATE,LEVEL 2,-0.640626239534,34.967387947932,Nyamira,Success,
CN-12045,CAPITAL MEMORIAL NURSING HOME,MAKUENI,PRIVATE,LEVEL 3A,-2.160192128139,37.789123486634,Makueni,Success,
CN-12054,KALOKOL MEDICAL SERVICES,TURKANA,PRIVATE,LEVEL 3A,3.5354839,35.8614434,"Kalokol, Turkana",Success,
CN-12061,WAMA NURSING HOME,KAJIADO,PRIVATE,LEVEL 4,-1.3928344,36.6844427,Matasia Nursing Home,Success,
CN-12114,PHINAL COMMUNITY MEDICAL CENTRE,BUNGOMA,PRIVATE,LEVEL 3A,0.748950071987,34.640152743934,Bungoma,Success,
CN-12132,ALFAPLUS MEDICAL CENTER,MOMBASA,PRIVATE,LEVEL 2,-4.0574645,39.663945,Mombasa,Success,
CN-12162,SANGALO HOSPICE MEDICAL CLINIC,NANDI,PRIVATE,LEVEL 2,0.38333,35.01667,"Sangalo, Nandi",Success,
CN-12166,MEDISTAR ANNEX KERICHO LIMITED,KERICHO,PRIVATE,LEVEL 2,-0.3682293,35.2854418,Kericho,Success,
CN-12203,THE SANURA MEDICAL CENTRE,HOMA BAY,PRIVATE,LEVEL 3A,-0.545235884388,34.356395993113,Homa Bay,Success,
CN-12207,SANTA CLARA MEDICAL CLINIC LTD,BARINGO,PRIVATE,LEVEL 2,0.671904478344,35.940931127722,Baringo,Success,
CN-12227,WENISA MEDICAL CENTRE-NUNGUNI,MAKUENI,PRIVATE,LEVEL 3B,-1.7935654,37.3629504,"Nunguni, Makueni",Success,
CN-12235,PRIME HEALTH SERVICES - KAHAWA WEST,NAIROBI,PRIVATE,LEVEL 2,-1.2857857,36.8200253,Nairobi,Success,
CN-12303,WEST CANO MEDICAL CENTRE,BUNGOMA,PRIVATE,LEVEL 2,0.748950071987,34.640152743934,Bungoma,Success,
CN-12305,KOMAROCK MODERN HEALTHCARE- KATHWANA,THARAKA-NITHI,PRIVATE,LEVEL 5,-0.3199528,37.871254,"Kathwana, Tharaka-Nithi",Success,
CN-12319,PENDA MEDICAL CENTRE PIPELINE,NAIROBI,PRIVATE,LEVEL 3A,-1.31244,36.79729,Medical Centre,Success,
CN-12356,THE KAMUWONGO HOPE MEDICARE CENTRE,KITUI,PRIVATE,LEVEL 3B,-1.493161090519,38.407478986946,Kitui,Success,
CN-12432,KAPKOLEI HEALTH CARE CENTRE,NANDI,PRIVATE,LEVEL 2,0.0033193,35.0117954,"Kapkolei, Nandi",Success,
CN-12471,ADC MARKET NURSING HOME LIMITED,WAJIR,PRIVATE,LEVEL 3B,1.75504011033,40.017147679353,Wajir,Success,
CN-12498,AFYALINK MEDICAL CENTRE,KIRINYAGA,PRIVATE,LEVEL 3B,-0.525012949373,37.320744609382,Kirinyaga,Success,
CN-12581,CHACAWEST HEALTHCARE,MACHAKOS,PRIVATE,LEVEL 2,-1.279605613208,37.413530961083,Machakos,Success,
CN-12619,BIG DIMENSION EYE CLINIC,KAJIADO,PRIVATE,LEVEL 2,-1.8419404,36.7892723,Kajiado,Success,
CN-12694,ST. AKIDIVA MINDIRA HOSPITAL MABERA,MIGORI,PRIVATE,LEVEL 4,-1.18333,34.45,"Mabera, Migori",Success,
CN-12695,YETU KABIRIA HEALTHCARE AND SUPPLIES LIMITED,NAIROBI,PRIVATE,LEVEL 2,-1.2857857,36.8200253,Nairobi,Success,
CN-12728,SOUTH C DIALYSIS CENTRE LTD,NAIROBI,PRIVATE,LEVEL 3B,-1.31583,36.82603,"South ’C’, Nairobi",Success,
CN-12734,NELLY NURSING HOSPITAL AND MATERNITY,NAIROBI,PRIVATE,LEVEL 3B,-1.3179384,36.8919549,Novic Medical and Maternity Hospital,Success,
CN-12748,DURO MODERN HOSPITAL LIMITED,NAKURU,PRIVATE,LEVEL 3A,-0.2806559,36.0794189,Nakuru,Success,
CN-12760,MENORAH HOSPITAL (K )LTD-WESTLANDS MEDICAL CENTRE,NAIROBI,PRIVATE,LEVEL 3B,-1.2645,36.8241,"AKUHN Medical Centre, Parkplace, Nairobi",Success,
CN-12767,LIFE POINT HOSPITAL,KIAMBU,PRIVATE,LEVEL 4,-1.0174562,36.9032367,Hospital,Success,
CN-12768,EL-MAKKAH COMPREHENSIVE CARE,GARISSA,PRIVATE,LEVEL 3A,-0.4459246,39.652735,Garissa,Success,
CN-12776,MASII MEDICAL CENTRE,MACHAKOS,PRIVATE,LEVEL 3B,-1.4598636,37.4367999,"Masii, Machakos",Success,
CN-12781,ST.MARK ORTHODOX HEALTH CENTRE LIMITED,VIHIGA,PRIVATE,LEVEL 3A,0.080244585317,34.730720378013,Vihiga,Success,
CN-12837,REALE HOSPITAL ELDORET,UASIN GISHU,PRIVATE,LEVEL 5,0.5184695,35.2739056,"Eldoret, Uasin Gishu",Success,
CN-12840,WHITELIFE HEALTH CENTRE LTD,MOMBASA,PRIVATE,LEVEL 2,-4.0219743,39.6858526,Health Centre,Success,
CN-12850,NAIROBI WEST HOSPITAL-UTAWALA MEDICAL CENTRE,NAIROBI,PRIVATE,LEVEL 3A,-1.31231,36.81689,"AKUHN Medical Centre, Tmall, Nairobi",Success,
CN-12873,MUTETHIA KIRAONE NURSING HOME,MERU,PRIVATE,LEVEL 3B,0.166838927273,37.764590845633,Meru,Success,
CN-12884,BLESSED TO BLESS HEALTHCARE LIMITED,NAIROBI,PRIVATE,LEVEL 3B,-1.2857857,36.8200253,Nairobi,Success,
CN-12971,HEGALOW NURSING HOME,MANDERA,PRIVATE,LEVEL 3A,3.9352641,41.8527175,Al-Siha Nursing Home,Success,
CN-12999,MUSOLI MEDICAL CENTRE LTD,KAKAMEGA,PRIVATE,LEVEL 3B,0.203903,34.6669673,"Musoli, Kakamega",Success,
CN-13015,ASSISI NURSING HOME,MACHAKOS,PRIVATE,LEVEL 3B,-1.279605613208,37.413530961083,Machakos,Success,
CN-13025,NYABOHANSE MEDICAL CENTRE,MIGORI,PRIVATE,LEVEL 3A,-1.2084415,34.4721215,"Nyabohansi, Migori",Success,
CN-13040,NAIROBI MENTAL HEALTH SERVICES,NAIROBI,PRIVATE,LEVEL 4B,-1.2857857,36.8200253,Nairobi,Success,
CN-13052,HEALTH WAVE MEDICAL SERVICES LIMITED-HOSPITAL,NAKURU,PRIVATE,LEVEL 4,-0.2806559,36.0794189,Nakuru,Success,
CN-13086,ALMO NURSING HOME LIMITED,WAJIR,PRIVATE,LEVEL 3B,1.75504011033,40.017147679353,Wajir,Success,
CN-13103,THE GODS FAVOUR MEDICAL CLINIC,UASIN GISHU,PRIVATE,LEVEL 3A,0.521314476021,35.31977624114,Uasin Gishu,Success,
CN-13176,INTERFELK MEDICAL CENTRE,KISUMU,PRIVATE,LEVEL 2,-0.173053648767,34.839859182104,Kisumu,Success,
CN-13180,BOGEKA MEDICAL CLINIC,KISII,PRIVATE,LEVEL 2,-0.820578,34.732977,Quiners Medical Clinic,Success,
CN-13182,MAGWALAND HEALTHCARE,NYAMIRA,PRIVATE,LEVEL 3B,-0.640626239534,34.967387947932,Nyamira,Success,
CN-13184,DEDE HARMONY MEDICAL CENTRE AND MATERNITY HOME,MIGORI,PRIVATE,LEVEL 3A,-0.989136495207,34.364493855317,Migori,Success,
CN-13196,NAMUNYAK MEDICAL CENTRE,KAJIADO,PRIVATE,LEVEL 3B,-1.4749883,36.9612494,Batian Medical Centre,Success,
CN-13201,LYDIA MEMORIAL KEY MEDICAL CENTER LIMITED,MACHAKOS,PRIVATE,LEVEL 3A,-1.279605613208,37.413530961083,Machakos,Success,
CN-13273,GYNOCARE WOMENS AND FISTULA HOSPITAL LTD,UASIN GISHU,PRIVATE,LEVEL 4,0.521314476021,35.31977624114,Uasin Gishu,Success,
CN-13290,APODA MEDICAL CLINIC,HOMA BAY,PRIVATE,LEVEL 2,-0.7250456,34.3717652,Clinic,Success,
CN-13306,WEMA CHILDREN\\'S ACCESS CLINICS-BY GERTRUDES,NAIROBI,PRIVATE,LEVEL 3A,-1.2857857,36.8200253,Nairobi,Success,
CN-13339,SHIFAH HOSPITAL AND DIALYSIS CENTER LIMITED,TRANS-NZOIA,PRIVATE,LEVEL 4,1.050719398347,34.957014580558,Trans Nzoia,Success,
CN-13352,QATIS NURSING HOME LTD,MANDERA,PRIVATE,LEVEL 3A,3.370055804436,40.694029088396,Mandera,Success,
CN-13462,MITUNGUU HOSPITAL,MERU,PRIVATE,LEVEL 4,-0.1080767,37.781236,"Mitunguu, Meru",Success,
CN-13513,ST ERNEST MEDICAL POINT CLINIC LIMITED,MACHAKOS,PRIVATE,LEVEL 2,-1.279605613208,37.413530961083,Machakos,Success,
CN-13530,UNIVERSAL FAMILY HEALTH SERVICES.,MACHAKOS,PRIVATE,LEVEL 5,-1.279605613208,37.413530961083,Machakos,Success,
CN-13540,LINDA JAMII HEALTHCARE LTD,SIAYA,PRIVATE,LEVEL 2,-0.06564696176,34.248353736491,Siaya,Success,
CN-13629,MODERN REDSEA NURSING HOME LIMITED,MANDERA,PRIVATE,LEVEL 3A,3.370055804436,40.694029088396,Mandera,Success,
CN-13646,WELCARE DIAGNOSTIC CENTRE LIMITED-VIPINGO,KILIFI,PRIVATE,LEVEL 2,-3.81466,39.81282,"Vipingo, Kilifi",Success,
CN-13665,NEBOI NURSING HOME,MANDERA,PRIVATE,LEVEL 3B,3.9352641,41.8527175,Al-Siha Nursing Home,Success,
CN-13721,AZIM NURSING HOME LIMITED,MANDERA,PRIVATE,LEVEL 3B,3.370055804436,40.694029088396,Mandera,Success,
CN-13753,ST NEWFREB HOSPITAL LIMITED,KISUMU,PRIVATE,LEVEL 3B,-0.173053648767,34.839859182104,Kisumu,Success,
CN-13754,AL-MAQDIS MEDICAL CENTRE,GARISSA,PRIVATE,LEVEL 4,-0.448028,39.6481158,Al-Maqdis Medical Centre And Pharmacy,Success,
CN-13757,ISANA NURSING HOME,KISII,PRIVATE,LEVEL 3B,-0.6782878,34.7145805,Itiero Nursing Home,Success,
CN-13849,MUDHESH HEALTH CARE & NURSING HOME LIMITED,MANDERA,PRIVATE,LEVEL 3B,3.370055804436,40.694029088396,Mandera,Success,
CN-13903,PENDA MEDICAL CENTRE LANGATA,NAIROBI,PRIVATE,LEVEL 3A,-1.319412,36.826324,Nairobi South Medical Center,Success,
CN-13905,CHEPTULU CFW CLINIC,VIHIGA,PRIVATE,LEVEL 2,0.13333,34.86667,Cheptulu,Success,
CN-13918,RAMMO HOSPITAL LIMITED,MANDERA,PRIVATE,LEVEL 3B,3.370055804436,40.694029088396,Mandera,Success,
CN-13924,ANDERSEN MEDICAL CENTRE,TRANS-NZOIA,PRIVATE,LEVEL 3B,1.050719398347,34.957014580558,Trans Nzoia,Success,
CN-13927,SABA MEDICAL CENTRE,MURANGA,PRIVATE,LEVEL 3A,-0.7180943,37.1589456,"Muranga, Murang'a",Success,
CN-13934,GREATSMILES DENTAL CENTRE,NAKURU,PRIVATE,LEVEL 2,-0.2806559,36.0794189,Nakuru,Success,
CN-13978,SANTAMORE SPECIALIZED SURGICAL HOSPITAL LIMITED,MURANGA,PRIVATE,LEVEL 4B,-0.7180943,37.1589456,"Muranga, Murang'a",Success,
CN-14020,SIHA MEDICAL HOME LIMITED MPEKETONI,LAMU,PRIVATE,LEVEL 4,-2.389734,40.6958176,"Mpeketoni, Lamu",Success,
CN-14021,MASALANI DIAGNOSTIC LIMITED,GARISSA,PRIVATE,LEVEL 4,-1.6965839,40.1671065,"Masalani, Garissa",Success,
CN-14142,CHARITY MEDICAL HOSPITAL,LAIKIPIA,PRIVATE,LEVEL 4,0.321036458859,36.76507926291,Laikipia,Success,
CN-14199,AFYA HILL MEDICAL CENTRE,NYAMIRA,PRIVATE,LEVEL 3A,-0.640626239534,34.967387947932,Nyamira,Success,
CN-14207,BUNGOMA WEMA CENTRE,BUNGOMA,PRIVATE,LEVEL 3A,0.5705677,34.5599957,Bungoma,Success,
CN-14239,BARAKA MATERNITY & NURSING HOME,NAKURU,PRIVATE,LEVEL 3A,-0.3020257,35.8135651,Elburgon Nursing & Maternity Home,Success,
CN-14241,ELDO EYE HEALTH SERVICES LIMITED,NANDI,PRIVATE,LEVEL 4,0.182680842869,35.108710560862,Nandi,Success,
CN-14251,IKANGA HOPE DIAGNOSTIC &amp; TREATMENT CENTRE,KITUI,PRIVATE,LEVEL 3A,-1.493161090519,38.407478986946,Kitui,Success,
CN-14360,BURDER NURSING HOME LIMITED,WAJIR,PRIVATE,LEVEL 3B,1.75504011033,40.017147679353,Wajir,Success,
CN-14435,STAR GENERAL MEDICAL CENTRE,NAIROBI,PRIVATE,LEVEL 3B,-1.31244,36.79729,Medical Centre,Success,
CN-14453,LUKENYA UNIVERSITY HEALTH CENTRE,MAKUENI,PRIVATE,LEVEL 2,-1.7965131,37.6267536,Health Centre,Success,
CN-14493,THE NAIROBI WOMEN\\'S HOSPITAL KITENGELA,KAJIADO,PRIVATE,LEVEL 4,-1.5502963,36.9382239,"Kitengela, Kajiado",Success,
CN-14497,MASENO MEDICAL CENTER,VIHIGA,PRIVATE,LEVEL 3A,0.080244585317,34.730720378013,Vihiga,Success,
CN-14508,WAFOO HEALTHCARE,NAROK,PRIVATE,LEVEL 2,-1.257270424837,35.575800972424,Narok,Success,
CN-14537,MACHAKOS CHILDREN\\'S CLINIC LIMITED,MACHAKOS,PRIVATE,LEVEL 3A,-1.5184295,37.2668947,Machakos,Success,
CN-14543,ILATU MEDICAL CLINIC,MAKUENI,PRIVATE,LEVEL 2,-2.160192128139,37.789123486634,Makueni,Success,
CN-14560,NYAHURURU PRIVATE HOSPITAL,LAIKIPIA,PRIVATE,LEVEL 4,0.03813,36.36339,"Nyahururu, Laikipia",Success,
CN-14574,ST. CRISPIN AFYA HOSPITAL LIMITED,KAJIADO,PRIVATE,LEVEL 3B,-1.8419404,36.7892723,Kajiado,Success,
CN-14604,RADIANT GROUP HOSPITAL LIMITED PANGANI,NAIROBI,PRIVATE,LEVEL 5,-1.2701309,36.8348377,Radiant Group Of Hospitals,Success,
CN-14623,ST. JOSEPH\\'S NURSING & MATERNITY HOME SALGAA,NAKURU,PRIVATE,LEVEL 2,-0.2473606,35.7272087,St Joseph Nursing & Maternity Home,Success,
CN-14636,GILGIL HEALTHCARE MEDICAL CENTRE LIMITED,NAKURU,PRIVATE,LEVEL 3B,-0.536957853763,36.258166778344,"Gilgil, Nakuru",Success,
CN-14661,MAASUD PHARMACY AND MEDICAL CENTRE LIMITED,MANDERA,PRIVATE,LEVEL 3A,3.9352658,41.854306,Masuud Pharmacy and Medical Centre,Success,
CN-14746,NEXICARE MEDICAL CLINIC,NAIROBI,PRIVATE,LEVEL 3A,-1.2861836,36.8447974,Clinic,Success,
CN-14763,GRAPEVINE HEALTH CARE CENTRE,NAKURU,PRIVATE,LEVEL 2,-0.2806559,36.0794189,Nakuru,Success,
CN-14820,WESTOLDREX MEDICAL CENTRE LTD,BUNGOMA,PRIVATE,LEVEL 2,0.748950071987,34.640152743934,Bungoma,Success,
CN-14836,BETHESDA MEDICAL CLINIC,NANDI,PRIVATE,LEVEL 3A,0.199336,35.1092801,Clinic,Success,
CN-14882,TRANQUIL MED CENTRE LIMITED,NAIROBI,PRIVATE,LEVEL 4,-1.2857857,36.8200253,Nairobi,Success,
CN-14890,JAMHURI LIFE CARE HOSPITAL LIMITED,MANDERA,PRIVATE,LEVEL 4,3.370055804436,40.694029088396,Mandera,Success,
CN-14940,SHELETEY NURSING HOME LIMITED,WAJIR,PRIVATE,LEVEL 3B,1.75504011033,40.017147679353,Wajir,Success,
CN-14968,DR BENS\\' STANFORD MEDICAL CENTRE,KILIFI,PRIVATE,LEVEL 2,-3.9159737,39.5828209,Medical Centre,Success,
CN-14986,NEW LIFE MISSION ROTARY CLINIC RONGAI,KAJIADO,PRIVATE,LEVEL 2,-1.8419404,36.7892723,Kajiado,Success,
CN-15005,BULLE MEDICAL CENTRE,GARISSA,PRIVATE,LEVEL 3B,-0.4513357,39.6459576,Ankara Medical Centre,Success,
CN-15085,DIANI BEACH HOSPITAL LIMITED-SHIKA ADABU,MOMBASA,PRIVATE,LEVEL 4,-4.0574645,39.663945,Mombasa,Success,
CN-15103,THIKA NURSING HOMES LTD,KIAMBU,PRIVATE,LEVEL 3B,-1.0403993,37.0695779,Thika Nursing Home,Success,
CN-15130,SHAMAAL HOSPITAL-BANISA LIMITED,MANDERA,PRIVATE,LEVEL 4,3.94102,40.34248,"Banissa, Mandera",Success,
CN-15135,ST. LAWRENCE HOMA BAY HOSPITAL,HOMA BAY,PRIVATE,LEVEL 4,-0.593629811849,34.478476360351,Homa Bay,Success,
CN-15171,GECA MEDICAL CLINIC,MOMBASA,PRIVATE,LEVEL 2,-4.0574645,39.663945,Mombasa,Success,
CN-15224,SIRIBA NURSING HOME,WAJIR,PRIVATE,LEVEL 4,0.0,34.6,"Siriba, Kisumu",Success,
CN-15301,PONA HAVEN HOSPITAL,MAKUENI,PRIVATE,LEVEL 3B,-2.160192128139,37.789123486634,Makueni,Success,
CN-15316,LANET MEDICAL CENTRE,NAKURU,PRIVATE,LEVEL 3B,-0.2998718,36.1409901,"Lanet, Nakuru",Success,
CN-15318,ANGELS HEALTH SERVICES,MERU,PRIVATE,LEVEL 3A,0.166838927273,37.764590845633,Meru,Success,
CN-15340,JORDAN HOSPITAL,KITUI,PRIVATE,LEVEL 5,-1.3805421,38.010545,Hospital,Success,
CN-15385,TENDERCARE HOSPITAL LIMITED,NAIROBI,PRIVATE,LEVEL 3B,-1.2857857,36.8200253,Nairobi,Success,
CN-15423,CHEPSONOI UZIMA MEDICAL CENTRE LIMITED,NANDI,PRIVATE,LEVEL 2,0.1878165,34.9500831,"Chepsonoi, Nandi",Success,
CN-15441,MOTHER SOLBRIT HEALTH CENTRE,MIGORI,PRIVATE,LEVEL 3B,-1.1654376,34.6090837,Health Centre,Success,
CN-15507,PRIMECARE ENDOSCOPY AND SURGERY CENTER LIMITED,NAIROBI,PRIVATE,LEVEL 3A,-1.2857857,36.8200253,Nairobi,Success,
CN-15530,LESPOIR MEDICAL CENTER,NAIROBI,PRIVATE,LEVEL 2,-1.31244,36.79729,Medical Centre,Success,
CN-15586,ZAMNAL NURSING HOME LIMITED,WAJIR,PRIVATE,LEVEL 3A,1.75504011033,40.017147679353,Wajir,Success,
CN-15590,GENERATION AFYA CENTRE,BARINGO,PRIVATE,LEVEL 3A,0.671904478344,35.940931127722,Baringo,Success,
CN-15593,NABSIT NURSING HOME,WAJIR,PRIVATE,LEVEL 4,1.75504011033,40.017147679353,Wajir,Success,
CN-15677,MY CLINIC LLP,MACHAKOS,PRIVATE,LEVEL 2,-1.279605613208,37.413530961083,Machakos,Success,
CN-15681,YO-MALER MEDICAL CENTRE,SIAYA,PRIVATE,LEVEL 2,-0.06564696176,34.248353736491,Siaya,Success,
CN-15708,BENTA AND LEON HEALTHCARE LTD,NAKURU,PRIVATE,LEVEL 4,-0.2806559,36.0794189,Nakuru,Success,
CN-15724,MARY IMMACULATE HEALTH CENTRE BAHATI,NAIROBI,PRIVATE,LEVEL 3B,-1.2909709,36.8552422,"Bahati, Makadara, Nairobi",Success,
CN-15746,WARSAMEE NURSING HOME LIMITED,MANDERA,PRIVATE,LEVEL 3B,3.370055804436,40.694029088396,Mandera,Success,
CN-15796,CKS DIALYSIS CENTRE PANGANI,NAIROBI,PRIVATE,LEVEL 4B,-1.2720308,36.8403188,"Pangani, Starehe, Nairobi",Success,
CN-15829,CONNECTION HEALTH SERVICES LIMITED,BUNGOMA,PRIVATE,LEVEL 3B,0.748950071987,34.640152743934,Bungoma,Success,
CN-15846,ORUBA NURSING & MATERNITY HOME,MIGORI,PRIVATE,LEVEL 3B,-1.0678754,34.4643987,Oruba Nursing & Maternity Hospital,Success,
CN-15923,MEDICROSS ANANAS,KIAMBU,PRIVATE,LEVEL 2,-1.1672396,36.8255013,Kiambu,Success,
CN-15960,ANFAC NURSING HOME,GARISSA,PRIVATE,LEVEL 3B,-0.4793949,39.6576686,Iftin Nursing Home,Success,
CN-15978,CRESCENT COMMUNITY HOSPITAL LIMITED,NAIROBI,PRIVATE,LEVEL 4,-1.2857857,36.8200253,Nairobi,Success,
CN-16024,GLOBAL OPTIC WEAR EYE CLINIC,KITUI,PRIVATE,LEVEL 2,-1.493161090519,38.407478986946,Kitui,Success,
CN-16025,UNITY MATERNITY AND NURSING HOME UMOJA,NAIROBI,PRIVATE,LEVEL 3B,-1.2824636,36.7497587,Wema Maternity & Nursing Home,Success,
CN-16028,HOMEGROUND MEDICAL CENTRE,SIAYA,PRIVATE,LEVEL 4,-0.06564696176,34.248353736491,Siaya,Success,
CN-16035,EQUITY AFIA NGONG ROAD,NAIROBI,PRIVATE,LEVEL 3B,-1.2969573,36.7898011,Ngong Road,Success,
CN-16053,CHAANI MEDICAL CLINIC,MOMBASA,PRIVATE,LEVEL 2,-4.0574645,39.663945,Mombasa,Success,
CN-16067,PRO-CARE COTTAGE HOSPITAL LIMITED WEMPA,MURANGA,PRIVATE,LEVEL 2,-0.7180943,37.1589456,"Muranga, Murang'a",Success,
CN-16128,ALPHOND MEDICAL CLINIC,KAKAMEGA,PRIVATE,LEVEL 2,0.31961,34.572748,Anointed Medical Clinic,Success,
CN-16185,ST ANNA HOSPITAL WEBUYE,BUNGOMA,PRIVATE,LEVEL 3A,0.6006929,34.7655677,"Webuye, Bungoma",Success,
CN-16223,AL-HAMDU NURSING HOME,WAJIR,PRIVATE,LEVEL 3B,1.75504011033,40.017147679353,Wajir,Success,
CN-16236,FREMO MEDICAL CENTRE,NAIROBI,PRIVATE,LEVEL 3B,-1.31244,36.79729,Medical Centre,Success,
CN-16257,GAGABA NURSING HOME LTD,MANDERA,PRIVATE,LEVEL 3B,3.370055804436,40.694029088396,Mandera,Success,
CN-16338,PHINAL COMMUNITY MEDICAL CENTRE,BUNGOMA,PRIVATE,LEVEL 3A,0.748950071987,34.640152743934,Bungoma,Success,
CN-16347,MERCILIN AFYA SERVICES,MACHAKOS,PRIVATE,LEVEL 2,-1.279605613208,37.413530961083,Machakos,Success,
CN-16397,MADINA HOSPITAL LTD,NAIROBI,PRIVATE,LEVEL 4,-1.302816508735,36.809301579489,"Hospital Road, Kibra",Success,
CN-16441,KMET CORKRAN HEALTH CENTRE,KISUMU,PRIVATE,LEVEL 2,-0.0464292,34.7199994,Health Centre,Success,
CN-16478,APEX SPECIAL CLINICS AND WELLNESS CENTRE LTD,MANDERA,PRIVATE,LEVEL 4,3.370055804436,40.694029088396,Mandera,Success,
CN-16501,SUMMIT ORTHOPEDICS AND SURGICAL HOSPITAL LIMITED,NAIROBI,PRIVATE,LEVEL 4,-1.2857857,36.8200253,Nairobi,Success,
CN-16536,BISHARO NURSING HOME LIMITED,TANA RIVER,PRIVATE,LEVEL 3B,-1.525833141625,39.418023580214,Tana River,Success,
CN-16584,LELWAK MEDICAL CLINIC,NANDI,PRIVATE,LEVEL 3A,0.199336,35.1092801,Clinic,Success,
CN-16634,CHOMBA GITAU NEEMA MEDICAL CENTRE,KIAMBU,PRIVATE,LEVEL 3B,-1.1672396,36.8255013,Kiambu,Success,
CN-16680,THE MAKUENI DOCTORS PLAZA LIMITED,MAKUENI,PRIVATE,LEVEL 4,-1.960707833918,37.686655295403,Makueni,Success,
CN-16683,THE BALOZI HOSPITAL LIMITED,NAIROBI,PRIVATE,LEVEL 5,-1.2857857,36.8200253,Nairobi,Success,
CN-16718,BLISS MEDICAL CLINIC MUMIAS,KAKAMEGA,PRIVATE,LEVEL 3B,0.31961,34.572748,Anointed Medical Clinic,Success,
CN-16730,RIYAAD MEDICAL CENTRE LIMITED,MANDERA,PRIVATE,LEVEL 3B,3.370055804436,40.694029088396,Mandera,Success,
CN-16736,DAMASA NURSING HOME LIMITED,MANDERA,PRIVATE,LEVEL 3A,3.15972,41.32564,"Damasa, Mandera",Success,
CN-16757,KERICHO OUTPATIENT MEDICAL CENTRE,KERICHO,PRIVATE,LEVEL 3A,-0.3682293,35.2854418,Kericho,Success,
CN-16774,CHEPTUR HEALTH SERVICES,BOMET,PRIVATE,LEVEL 3A,-0.72064302304,35.297853151752,Bomet,Success,
CN-16832,ST. KIZITO HEALTH CENTRE,MIGORI,PRIVATE,LEVEL 3A,-1.191218,34.613229,Saint Kizito Health Centre,Success,
CN-16865,LIBERTY CANCER AND WELLNESS CENTRE,NAKURU,PRIVATE,LEVEL 4B,-0.2806559,36.0794189,Nakuru,Success,
CN-16911,THE JAZAIR MEDICAL CLINIC LIMITED,MANDERA,PRIVATE,LEVEL 3B,3.370055804436,40.694029088396,Mandera,Success,
CN-16916,UNITED HEALTH GROUP LIMITED-MEDICAL CENTRE,MERU,PRIVATE,LEVEL 3A,0.166838927273,37.764590845633,Meru,Success,
CN-16937,KABATI MEDICARE HEALTH CENTRE,KITUI,PRIVATE,LEVEL 3A,-1.2246595,38.1890071,Health Centre,Success,
CN-17004,SHABAHA CANCER CENTER,NAIROBI,PRIVATE,LEVEL 4B,-1.2857857,36.8200253,Nairobi,Success,
CN-17021,AL-BUSHRA MEDICAL CENTRE,WAJIR,PRIVATE,LEVEL 4,1.75504011033,40.017147679353,Wajir,Success,
CN-17074,BAREEN HOSPITAL LIMITED,WAJIR,PRIVATE,LEVEL 3A,1.75504011033,40.017147679353,Wajir,Success,
CN-17095,TAWHEED COMMUNITY NURSING HOME - MINJILA,TANA RIVER,PRIVATE,LEVEL 3B,-2.31916,40.11084,"Minjila, Tana River",Success,
CN-17207,SUNNA HEALTHCARE & DENTAL SERVICES,GARISSA,PRIVATE,LEVEL 3A,-0.4477759,39.6477018,Sunna Healthcare & Dental Services,Success,
CN-17231,TAMIM MEDICAL CENTRE LTD,MANDERA,PRIVATE,LEVEL 3A,3.370055804436,40.694029088396,Mandera,Success,
CN-17267,RHEEMAH HOSPITAL LIMITED,NAIROBI,PRIVATE,LEVEL 3B,-1.2857857,36.8200253,Nairobi,Success,
CN-17271,AL MAIDAH NURSING HOME LIMITED,WAJIR,PRIVATE,LEVEL 3A,1.75504011033,40.017147679353,Wajir,Success,
CN-17282,KIP\\'S MEDICAL CENTRE LIMITED,TURKANA,PRIVATE,LEVEL 2,3.186636109974,35.449603095023,Turkana,Success,
CN-17287,ANISAA MEDICAL CARE,NAIROBI,PRIVATE,LEVEL 3B,-1.2857857,36.8200253,Nairobi,Success,
CN-17307,LANE CARE MEDICAL CENTRE,MACHAKOS,PRIVATE,LEVEL 2,-1.279605613208,37.413530961083,Machakos,Success,
CN-17324,EQUITY AFIA MANDERA MEDICALL CENTRE,MANDERA,PRIVATE,LEVEL 3A,3.370055804436,40.694029088396,Mandera,Success,
CN-17348,LIFECARE HOSPITAL LIMITED-KIKUYU,KIAMBU,PRIVATE,LEVEL 4,-1.2483129,36.6647816,"Kikuyu, Kiambu",Success,
CN-17378,ELBURGON MATERNITY HOME,NAKURU,PRIVATE,LEVEL 3A,-0.3020257,35.8135651,Elburgon Nursing & Maternity Home,Success,
CN-17417,ELEPHANT DENTAL SERVICES KAPSABET,NANDI,PRIVATE,LEVEL 2,0.2038669,35.1063272,"Kapsabet, Nandi",Success,
CN-17425,CHIEKO MEDICAL CENTRE,NAIROBI,PRIVATE,LEVEL 2,-1.31244,36.79729,Medical Centre,Success,
CN-17427,MAHAT ALLAH NURSING HOME LIMITED,WAJIR,PRIVATE,LEVEL 3B,1.75504011033,40.017147679353,Wajir,Success,
CN-17463,RUOTHS HOSPITAL LIMITED,SIAYA,PRIVATE,LEVEL 3B,-0.06564696176,34.248353736491,Siaya,Success,
CN-17537,JAMII MEDICAL CLINIC RIOSIRI,KISII,PRIVATE,LEVEL 2,-0.77314,34.63649,"Riosiri, Kisii",Success,
CN-17555,EMALIA COMMUNITY HEALTH CENTER,MIGORI,PRIVATE,LEVEL 3B,-1.1654376,34.6090837,Health Centre,Success,
CN-17622,VERTICAL LIFE CARE,NANDI,PRIVATE,LEVEL 3A,0.182680842869,35.108710560862,Nandi,Success,
CN-17652,GARISSA CHILDRENS HOSPITAL LTD,GARISSA,PRIVATE,LEVEL 3B,-0.450046,39.6458671,Garissa Children's Hospital,Success,
CN-17654,BESTCARE HOSPITAL LIMITED,MAKUENI,PRIVATE,LEVEL 4,-2.160192128139,37.789123486634,Makueni,Success,
CN-17703,SHEIKHBAROW NURSING HOME LIMITED,MANDERA,PRIVATE,LEVEL 3B,3.370055804436,40.694029088396,Mandera,Success,
CN-17758,ABULO MEDICAL CENTER,MANDERA,PRIVATE,LEVEL 3B,3.370055804436,40.694029088396,Mandera,Success,
CN-17764,AMARA TIBACARE MEDICAL CLINIC,TAITA-TAVETA,PRIVATE,LEVEL 2,-3.436547605259,38.417882139111,Taita Taveta,Success,
CN-17782,NG\\'ANDO RAPHA MEDICAL CENTRE LTD,NAIROBI,PRIVATE,LEVEL 3B,-1.30412,36.73978,"Ngando, Nairobi",Success,
CN-17799,NYANSIONGO MATERNITY AND NURSING HOME,NYAMIRA,PRIVATE,LEVEL 3B,-0.581044,34.935357,Nyamira Maternity and Nursing Home,Success,
CN-17824,AFRICA INTEGRATED SURGICAL CENTRE LIMITED,KAJIADO,PRIVATE,LEVEL 3A,-1.8419404,36.7892723,Kajiado,Success,
CN-17829,HATUA PLUS MEDICAL CENTER,HOMA BAY,PRIVATE,LEVEL 2,-0.545235884388,34.356395993113,Homa Bay,Success,
CN-17868,REHOBOTH MATERNITY &amp; NURSING HOME,KITUI,PRIVATE,LEVEL 3B,-1.493161090519,38.407478986946,Kitui,Success,
CN-17921,ATHI RIVER SHALOM COMMUNITY HOSPITAL,MACHAKOS,PRIVATE,LEVEL 4,-1.4575405,36.9792001,"Athi River, Machakos",Success,
CN-17935,DARICY MEDICAL CLINIC,MIGORI,PRIVATE,LEVEL 2,-0.8471809,34.1848542,Clinic,Success,
CN-17959,MEDSTA MEDICAL CENTRE,ISIOLO,PRIVATE,LEVEL 2,1.009414834849,38.539540438792,Isiolo,Success,
CN-17968,TANOCARE LIMITED,THARAKA-NITHI,PRIVATE,LEVEL 2,-0.206516213429,37.868692128983,Tharaka-Nithi,Success,
CN-18009,EMBU MEDICAL CENTRE,EMBU,PRIVATE,LEVEL 3A,-0.5379964,37.4543311,Embu,Success,
CN-18039,VOSTRUM KENYA LTD TOI CLINIC,NAIROBI,PRIVATE,LEVEL 2,-1.2857857,36.8200253,Nairobi,Success,
CN-18076,BLUEBEST MEDICAL CLINIC,NANDI,PRIVATE,LEVEL 2,0.199336,35.1092801,Clinic,Success,
CN-18185,THE ALTAR MEDICAL CENTER KIBIRICHIA,MERU,PRIVATE,LEVEL 3B,0.0920772,37.521127,"Kibirichia, Meru",Success,
CN-18227,CARE HOSPITAL LTD,NAIROBI,PRIVATE,LEVEL 5,-1.281149,36.8440915,Care Hospital,Success,
CN-18280,CENTRAL DIALYSIS AND DIAGNOSTIC CENTRE LIMITED,NYERI,PRIVATE,LEVEL 4B,-0.4211516,36.9494066,Nyeri,Success,
CN-18292,PASLING MEDICAL CENTRE,MIGORI,PRIVATE,LEVEL 3B,-0.989136495207,34.364493855317,Migori,Success,
CN-18307,GILLIANS MEDICAL CLINIC,VIHIGA,PRIVATE,LEVEL 2,0.080244585317,34.730720378013,Vihiga,Success,
CN-18392,JUJA MODERN HOSPITAL,KIAMBU,PRIVATE,LEVEL 3B,-1.0174562,36.9032367,Hospital,Success,
CN-18425,ALJAC MEDICAL HOSPITAL LIMITED,NAIROBI,PRIVATE,LEVEL 2,-1.2857857,36.8200253,Nairobi,Success,
CN-18439,OASIS DOCTORS PLAZA WEBUYE LIMITED,BUNGOMA,PRIVATE,LEVEL 4,0.6006929,34.7655677,"Webuye, Bungoma",Success,
CN-18484,LIONS SIGHTFIRST EYE HOSPITAL NYERI CLINIC,NYERI,PRIVATE,LEVEL 2,-0.4211516,36.9494066,Nyeri,Success,
CN-18499,JANICE CHOLERTON MEDICAL &amp; CANCER CENTRE,NAIROBI,PRIVATE,LEVEL 4,-1.2857857,36.8200253,Nairobi,Success,
CN-18522,PARKERRA MEDICAL CLINIC TOIYOI,BARINGO,PRIVATE,LEVEL 3B,0.08574,35.76614,"Perkerra, Baringo",Success,
CN-18565,RYATTAH MEDICAL CENTRE LTD,KAJIADO,PRIVATE,LEVEL 3B,-1.8419404,36.7892723,Kajiado,Success,
CN-18624,VISIONGATE EYE CARE CONSULTANT SIAYA,SIAYA,PRIVATE,LEVEL 2,0.0623814,34.2890632,Siaya,Success,
CN-18634,ACCESS AFYA LIMITED MUKURU,NAIROBI,PRIVATE,LEVEL 2,-1.3047,36.885,"Mukuru, Nairobi",Success,
CN-18697,BLUE TURTLE MEDICAL CLINIC,KITUI,PRIVATE,LEVEL 3A,-1.493161090519,38.407478986946,Kitui,Success,
CN-18722,HUDUD WELLNESS CENTRE LIMITED,MANDERA,PRIVATE,LEVEL 3B,3.370055804436,40.694029088396,Mandera,Success,
CN-18725,JUWFIAH MEDICAL CENTRE LIMITED-TRANSMARA,NAROK,PRIVATE,LEVEL 3B,-1.257270424837,35.575800972424,Narok,Success,
CN-18788,RESTORE HOSPITAL,NAIROBI,PRIVATE,LEVEL 4B,-1.302816508735,36.809301579489,"Hospital Road, Kibra",Success,
CN-18812,ASTER HEALTHCARE LIMITED,NAIROBI,PRIVATE,LEVEL 4B,-1.3049235,36.8324167,Beta Health Care Limited,Success,
CN-18880,RAKEDENN MEDICAL CENTRE,NYAMIRA,PRIVATE,LEVEL 3B,-0.640626239534,34.967387947932,Nyamira,Success,
CN-18894,MOUNT VERNON HOSPITAL,NYANDARUA,PRIVATE,LEVEL 2,-0.323536777902,36.481864588175,Nyandarua,Success,
CN-18943,GRIFTU NURSING HOME,WAJIR,PRIVATE,LEVEL 4,2.07984,39.66589,"Griftu, Wajir",Success,
CN-19086,RAFIQ NURSING HOME LIMITED,WAJIR,PRIVATE,LEVEL 3A,1.75504011033,40.017147679353,Wajir,Success,
CN-19087,WANTE NURSING HOME LIMITED,MANDERA,PRIVATE,LEVEL 3B,3.370055804436,40.694029088396,Mandera,Success,
CN-19108,MAXICARE SUNRISE LIMITED HOSPITAL,BUNGOMA,PRIVATE,LEVEL 4,0.748950071987,34.640152743934,Bungoma,Success,
CN-19119,BANGAL NURSING HOME LIMITED,TANA RIVER,PRIVATE,LEVEL 4,-0.71445,39.05265,"Bangali, Tana River",Success,
CN-19155,AFYAUHAI MEDICAL CLINIC,KAKAMEGA,PRIVATE,LEVEL 2,0.28422,34.75229,Kakamega,Success,
CN-19212,DOVE MENTAL HEALTH HOSPITAL,KIAMBU,PRIVATE,LEVEL 3A,-1.1672396,36.8255013,Kiambu,Success,
CN-19249,SARSAM MEDICAL CENTER,KIAMBU,PRIVATE,LEVEL 2,-1.0363673,37.0724379,Prime Medical Centre,Success,
CN-19315,ST.JOHN THE BAPTIST HEALTHCARE LIMITED,KIAMBU,PRIVATE,LEVEL 2,-1.1672396,36.8255013,Kiambu,Success,
CN-19341,SOUTHGATE MEDICAL CENTRE,MANDERA,PRIVATE,LEVEL 4,3.370055804436,40.694029088396,Mandera,Success,
CN-19360,GARSESALA MEDICAL CENTRE LIMITED,MANDERA,PRIVATE,LEVEL 3B,3.370055804436,40.694029088396,Mandera,Success,
CN-19439,HEALING TREE EYE & LASER HOSPITAL LIMITED,NAIROBI,PRIVATE,LEVEL 4B,-1.2857857,36.8200253,Nairobi,Success,
CN-19443,GETEMBE ANNEX FRANKSTON HOSPITAL,KISII,PRIVATE,LEVEL 3B,-0.775814232663,34.777005852014,Kisii,Success,
CN-19447,DAKAJA HEALTHCARE LTD,MANDERA,PRIVATE,LEVEL 3B,3.370055804436,40.694029088396,Mandera,Success,
CN-19465,TOP HILL BRAIN AND SPINE HOSPITAL,UASIN GISHU,PRIVATE,LEVEL 5,0.521314476021,35.31977624114,Uasin Gishu,Success,
CN-19497,AHAVA MEDICAL CENTRE,KISUMU,PRIVATE,LEVEL 3B,-0.1052648,34.7528874,Saint Andrews Medical Centre,Success,
CN-19573,THE AMNI HOSPITAL,GARISSA,PRIVATE,LEVEL 3B,-0.4535785,39.6303297,Hospital,Success,
CN-19581,PROACT SERVICES HEALTH CENTRE LTD,NAIROBI,PRIVATE,LEVEL 3B,-1.2857857,36.8200253,Nairobi,Success,
CN-19671,WALDIRI MEDICAL CENTRE,MANDERA,PRIVATE,LEVEL 3A,3.80574,41.16424,Waldiri,Success,
CN-19691,GARLANDS MEDICAL CENTRE LTD,KAJIADO,PRIVATE,LEVEL 3B,-1.8419404,36.7892723,Kajiado,Success,
CN-19714,IMARA HOSPITAL EMBU,EMBU,PRIVATE,LEVEL 4,-0.5379964,37.4543311,Embu,Success,
CN-19745,ST ANN MEDICAL CENTRE,KIAMBU,PRIVATE,LEVEL 3A,-1.0363673,37.0724379,Prime Medical Centre,Success,
CN-19756,EMSC CHILDREN HOSPITAL LIMITED,UASIN GISHU,PRIVATE,LEVEL 3A,0.521314476021,35.31977624114,Uasin Gishu,Success,
CN-19773,"CITYMED EAR,NOSE AND THROAT MEDICAL CENTRE",LAIKIPIA,PRIVATE,LEVEL 2,0.321036458859,36.76507926291,Laikipia,Success,
CN-19775,APEX HEAL EYE CENTRE LIMITED,KAKAMEGA,PRIVATE,LEVEL 4B,0.28422,34.75229,Kakamega,Success,
CN-19785,PETCAN HOPEWELL MEDICAL CLINIC AND DIAGNOSTIC CENTRE LTD,KISII,PRIVATE,LEVEL 3A,-0.775814232663,34.777005852014,Kisii,Success,
CN-19817,DAWADUBA NURSING HOME LTD,MANDERA,PRIVATE,LEVEL 3A,3.370055804436,40.694029088396,Mandera,Success,
CN-19868,ARAWA HOSPITAL LIMITED,MOMBASA,PRIVATE,LEVEL 4,-4.058813238121,39.671819391181,"Hospital Street, Mombasa",Success,
CN-19938,JOYLIGHT HOSPITAL,KISII,PRIVATE,LEVEL 3B,-0.7440181,34.6306154,Hospital,Success,
CN-19941,OLKALOU BETHEL MEDICAL CENTRE,NYANDARUA,PRIVATE,LEVEL 3B,-0.301574873353,36.363832594079,"Ol Kalou, Nyandarua",Success,
CN-20005,MEPHI HEALTH SERVICES LTD-LAMU,LAMU,PRIVATE,LEVEL 3A,-2.2679377,40.9002759,Lamu,Success,
CN-20049,HIGHCURE MEDICAL CENTRE LIMITED,KIAMBU,PRIVATE,LEVEL 3A,-1.1672396,36.8255013,Kiambu,Success,
CN-20061,NEERA HOSPITAL LIMITED,BOMET,PRIVATE,LEVEL 3B,-0.72064302304,35.297853151752,Bomet,Success,
CN-20083,KHAUNGA MEDICAL CLINIC,KAKAMEGA,PRIVATE,LEVEL 2,0.31961,34.572748,Anointed Medical Clinic,Success,
CN-20153,NANYUKI COTTAGE HOSPITAL,LAIKIPIA,PRIVATE,LEVEL 5,0.0153453,37.0786887,"Nanyuki, Laikipia",Success,
CN-20158,MEDICURE MEDICAL CENTER,KIRINYAGA,PRIVATE,LEVEL 2,-0.525012949373,37.320744609382,Kirinyaga,Success,
CN-20183,CLAYTONS FAMILY MEDICAL CENTRE,BUNGOMA,PRIVATE,LEVEL 3A,0.748950071987,34.640152743934,Bungoma,Success,
CN-20202,VOI COMMUNITY CLINIC,TAITA-TAVETA,PRIVATE,LEVEL 2,-3.306869615384,38.651608049581,"Voi, Taita Taveta",Success,
CN-20241,JED BLOSSOMS HOSPITAL LIMITED,KAKAMEGA,PRIVATE,LEVEL 3A,0.28422,34.75229,Kakamega,Success,
CN-20273,ROSMEGG MEDICAL CLINIC KANGETA,MERU,PRIVATE,LEVEL 3B,0.2771604,37.8873597,"Kangeta, Meru",Success,
CN-20311,ALMASI DENTAL CLINIC,NANDI,PRIVATE,LEVEL 2,0.182680842869,35.108710560862,Nandi,Success,
CN-20315,FIRST CHOICE HOSPITAL LTD,HOMA BAY,PRIVATE,LEVEL 3B,-0.545235884388,34.356395993113,Homa Bay,Success,
CN-20317,JAMIA ISLAMIC INTERGRATED HEALTH SERVICES,GARISSA,PRIVATE,LEVEL 4,-0.4459246,39.652735,Garissa,Success,
CN-20331,MERCYLINE CARE HOSPITAL,NAKURU,PRIVATE,LEVEL 3A,-0.2806559,36.0794189,Nakuru,Success,
CN-20416,BRILLIANCE CARE MEDICAL HOSPITAL,BUSIA,PRIVATE,LEVEL 3A,0.4480772,34.2407811,Hospital,Success,
CN-20422,NATAHA MEDICAL CENTRE,MANDERA,PRIVATE,LEVEL 3B,3.370055804436,40.694029088396,Mandera,Success,
CN-20445,BRIVIN MEDCARE,NYAMIRA,PRIVATE,LEVEL 3B,-0.640626239534,34.967387947932,Nyamira,Success,
CN-20452,I.R. IRAN MEDICAL CLINIC-NGONG ROAD,NAIROBI,PRIVATE,LEVEL 3A,-1.2861836,36.8447974,Clinic,Success,
CN-20503,MAO AWEYS INTERNATIONAL HOSPITAL LIMITED,NAIROBI,PRIVATE,LEVEL 4,-1.2842593,36.8212033,GNLD International,Success,
CN-20529,PENDA MEDICAL CENTRE KAHAWA WEST,NAIROBI,PRIVATE,LEVEL 3A,-1.31244,36.79729,Medical Centre,Success,
CN-20568,KIAMAKIMA COMMUNITY HOSPITAL LIMITED,THARAKA-NITHI,PRIVATE,LEVEL 4,-0.206516213429,37.868692128983,Tharaka-Nithi,Success,
CN-20635,JARBALEY NURSING HOME,MANDERA,PRIVATE,LEVEL 3B,3.9352641,41.8527175,Al-Siha Nursing Home,Success,
CN-20636,TOWNS GATE MEDICAL CENTRE,WAJIR,PRIVATE,LEVEL 3A,1.75504011033,40.017147679353,Wajir,Success,
CN-20661,ETONO JAB MEDICAL CENTRE LIMITED,KISII,PRIVATE,LEVEL 3A,-0.775814232663,34.777005852014,Kisii,Success,
CN-20666,BRIXTON MAKUNGA MEDICAL CLINIC,BUNGOMA,PRIVATE,LEVEL 2,0.748950071987,34.640152743934,Bungoma,Success,
CN-20719,SKOVIC HEALTHCARE KIPSIKIROK,BUNGOMA,PRIVATE,LEVEL 3B,0.748950071987,34.640152743934,Bungoma,Success,
CN-20735,KUTULO NURSING HOME LIMITED,MANDERA,PRIVATE,LEVEL 3A,3.370055804436,40.694029088396,Mandera,Success,
CN-20745,MEDKIM CARE CENTRE,KERICHO,PRIVATE,LEVEL 2,-0.296882276918,35.307304593825,Kericho,Success,
CN-20764,MUKINDURI FAMILY MEDICAL CENTER,KIRINYAGA,PRIVATE,LEVEL 2,-0.53333,37.26667,"Mukinduri, Kirinyaga",Success,
CN-20768,GRAND ROYALCARE MEDICAL LIMITED,UASIN GISHU,PRIVATE,LEVEL 4,0.521314476021,35.31977624114,Uasin Gishu,Success,
CN-20777,GOOD HOPE HEALTH LIMITED,BUSIA,PRIVATE,LEVEL 4,0.38569164205,34.193072581938,Busia,Success,
CN-20852,LILYON NURSING HOME,WEST POKOT,PRIVATE,LEVEL 3A,1.730227858033,35.246700118527,West Pokot,Success,
CN-20892,HEALE VIEW MEDICAL CENTER DOCTORS PLAZA LIMITED,TRANS-NZOIA,PRIVATE,LEVEL 3B,1.050719398347,34.957014580558,Trans Nzoia,Success,
CN-20927,MWANZA MEDICARE CENTRE,KAKAMEGA,PRIVATE,LEVEL 2,0.3779104,34.8521953,"Mwanza, Kakamega",Success,
CN-20940,FABAS MEDICAL CENTRE,KIAMBU,PRIVATE,LEVEL 2,-1.0363673,37.0724379,Prime Medical Centre,Success,
CN-20958,AL-JAMIL NURSING HOME LIMITED,MANDERA,PRIVATE,LEVEL 3B,3.370055804436,40.694029088396,Mandera,Success,
CN-20967,BURUJ MEDICAL CLINIC LIMITED,WAJIR,PRIVATE,LEVEL 3A,1.75504011033,40.017147679353,Wajir,Success,
CN-21022,BUSIA HEALTHSIDELAB MEDICAL CLINIC,BUSIA,PRIVATE,LEVEL 2,0.4645192,34.1021511,Busia,Success,
CN-21023,HORIZON MATERNITY &amp; NURSING HOME,NYAMIRA,PRIVATE,LEVEL 3A,-0.640626239534,34.967387947932,Nyamira,Success,
CN-21043,KITENGELA MEDICAL SERVICES,KAJIADO,PRIVATE,LEVEL 4,-1.5502963,36.9382239,"Kitengela, Kajiado",Success,
CN-21052,LUVERNE MEMORIAL MEDICAL CENTER,KISII,PRIVATE,LEVEL 3A,-0.775814232663,34.777005852014,Kisii,Success,
CN-21059,NAKURU EYE & OPTICAL CLINIC,NAKURU,PRIVATE,LEVEL 2,-0.2806559,36.0794189,Nakuru,Success,
CN-21061,THE RETREAT LTD NGONG ANNEX,KAJIADO,PRIVATE,LEVEL 3B,-1.3624737,36.6554643,"Ngong, Kajiado",Success,
CN-21142,EURAKA MEDICAL CENTRE,NAIROBI,PRIVATE,LEVEL 3B,-1.31244,36.79729,Medical Centre,Success,
CN-21161,THE WHITE CRESCENT HOSPITAL,KAJIADO,PRIVATE,LEVEL 4,-1.8419404,36.7892723,Kajiado,Success,
CN-21172,EYE FRIENDS CARE,MERU,PRIVATE,LEVEL 2,0.166838927273,37.764590845633,Meru,Success,
CN-21185,BONDO MEDICAL CENTRE,SIAYA,PRIVATE,LEVEL 3B,-0.16678600224,34.122756999572,"Bondo, Siaya",Success,
CN-21225,EQUITY AFIA NAKURU SECTION 58,NAKURU,PRIVATE,LEVEL 3A,-0.2806559,36.0794189,Nakuru,Success,
CN-21283,MAMBA HEALTHCARE LIMITED,KIAMBU,PRIVATE,LEVEL 3A,-1.1526617,36.6425166,Signature Healthcare Limited,Success,
CN-21293,NAMUYA SHALOM MEDICAL SERVICES,WEST POKOT,PRIVATE,LEVEL 3A,1.730227858033,35.246700118527,West Pokot,Success,
CN-21300,ARROW DENTAL LIMITED-THIKA,KIAMBU,PRIVATE,LEVEL 2,-1.0456234,37.0751363,"Thika, Kiambu",Success,
CN-21305,VIVID MEDICAL CENTRE LIMITED,MOMBASA,PRIVATE,LEVEL 3B,-4.0574645,39.663945,Mombasa,Success,
CN-21381,MARUBEL HEALTH CARE,BARINGO,PRIVATE,LEVEL 3A,0.671904478344,35.940931127722,Baringo,Success,
CN-21387,JUJA ROAD MATERNITY HOSPITAL LIMITED- PANGANI,NAIROBI,PRIVATE,LEVEL 4B,-1.269403382776,36.840211053823,"Juja Road, Starehe",Success,
CN-21415,HEALTHVUE HOSPITAL,MIGORI,PRIVATE,LEVEL 2,-0.8448852,34.563887,Hospital,Success,
CN-21484,SYOKIMAU HEALTH CENTRE,MACHAKOS,PRIVATE,LEVEL 3B,-1.36447,37.260884,Health Centre,Success,
CN-21487,OMOYA MEDICAL CENTRE,HOMA BAY,PRIVATE,LEVEL 3A,-0.5356848,34.5439287,"Omoya, Homa Bay",Success,
CN-21495,HIGHFIELD HOSPITAL,LAIKIPIA,PRIVATE,LEVEL 3B,0.321036458859,36.76507926291,Laikipia,Success,
CN-21504,MWINGI SPECIALIST HOSPITAL,KITUI,PRIVATE,LEVEL 4,-0.933549,38.0587051,"Mwingi, Kitui",Success,
CN-21513,SILOAM HOSPITAL LIMITED-MEDICAL CENTRE KERICHO,KERICHO,PRIVATE,LEVEL 3A,-0.3682293,35.2854418,Kericho,Success,
CN-21554,GRAYS MEDICAL CENTRE LIMITED,KISUMU,PRIVATE,LEVEL 3B,-0.173053648767,34.839859182104,Kisumu,Success,
CN-21638,OLE PAIPAI ASSISTED HOME CARE LIMITED,UASIN GISHU,PRIVATE,LEVEL 3A,0.521314476021,35.31977624114,Uasin Gishu,Success,
CN-21647,SISIT MEDICAL SERVICES LIMITED,UASIN GISHU,PRIVATE,LEVEL 3A,0.521314476021,35.31977624114,Uasin Gishu,Success,
CN-21755,THE CHERANGANY HOSPITAL LIMITED,TRANS-NZOIA,PRIVATE,LEVEL 5,1.024885033707,35.190002887464,"Cherangany, Trans Nzoia",Success,
CN-21757,TUDOR HEALTHCARE - BAMBURI,MOMBASA,PRIVATE,LEVEL 3A,-3.9888015,39.7310269,"Bamburi, Kisauni, Mombasa",Success,
CN-21858,AL-IHSAAN HEALTH CENTRE KIMAETI,BUNGOMA,PRIVATE,LEVEL 3B,0.6085914,34.408374,"Kimaeti, Bungoma",Success,
CN-21862,NGUVU NURSING HOME,MANDERA,PRIVATE,LEVEL 3B,3.9352641,41.8527175,Al-Siha Nursing Home,Success,
CN-21920,PRIME MEDICAL SERVICES LIMITED,KIAMBU,PRIVATE,LEVEL 3A,-1.1672396,36.8255013,Kiambu,Success,
CN-21926,BURA SPRINGS FAMILY MEDICAL CENTRE LIMITED,TAITA-TAVETA,PRIVATE,LEVEL 3B,-3.4551086,38.3121236,"Bura, Taita Taveta",Success,
CN-21932,THE RAMOS HEALTHCARE CLINIC,NAIROBI,PRIVATE,LEVEL 2,-1.2861836,36.8447974,Clinic,Success,
CN-21954,PEARLS AND PSALMS HOSPITAL LIMITED,KAKAMEGA,PRIVATE,LEVEL 3B,0.28422,34.75229,Kakamega,Success,
CN-21996,MARURA HOSPITAL,NAIROBI,PRIVATE,LEVEL 3B,-1.302816508735,36.809301579489,"Hospital Road, Kibra",Success,
CN-22001,JEKIM HOSPITAL NKUBU LTD,MERU,PRIVATE,LEVEL 4,-0.068116,37.6652777,"Nkubu, Meru",Success,
CN-22003,JAOSPHERS MEDICAL CENTRE,HOMA BAY,PRIVATE,LEVEL 2,-0.545235884388,34.356395993113,Homa Bay,Success,
CN-22185,NAKAJA MEDICAL DIAGNOSTIC CENTRE,BARINGO,PRIVATE,LEVEL 2,0.671904478344,35.940931127722,Baringo,Success,
CN-22220,KITENGELA MEDICAL SERVICES--KAJIADO,KAJIADO,PRIVATE,LEVEL 4,-1.5502963,36.9382239,"Kitengela, Kajiado",Success,
CN-22224,JUWFIAH MEDICAL CENTRE LIMITED,KISII,PRIVATE,LEVEL 3B,-0.775814232663,34.777005852014,Kisii,Success,
CN-22241,DIAMONDS REFINED RECOVERY CENTRE LTD,KIAMBU,PRIVATE,LEVEL 3B,-1.1672396,36.8255013,Kiambu,Success,
CN-22328,FAITH MODEL MEDICAL CENTRE,KISII,PRIVATE,LEVEL 3B,-0.775814232663,34.777005852014,Kisii,Success,
CN-22339,JAMII HEALTH CARE,KIAMBU,PRIVATE,LEVEL 3B,-1.1672396,36.8255013,Kiambu,Success,
CN-22345,RUMAILA HOSPITAL LIMITED,WAJIR,PRIVATE,LEVEL 3B,1.75504011033,40.017147679353,Wajir,Success,
CN-22409,LUBAO CENTRE MEDICAL CLINIC,KAKAMEGA,PRIVATE,LEVEL 2,0.2902862,34.7680823,Lupe Medical Centre,Success,
CN-22430,IKEREGE MEDICAL CENTRE,MIGORI,PRIVATE,LEVEL 3B,-1.19779,34.5574,"Ikerege, Migori",Success,
CN-22465,OSANI COMMUNITY HEALTH AND DEVELOPMENT CENTRE,HOMA BAY,PRIVATE,LEVEL 3B,-0.545235884388,34.356395993113,Homa Bay,Success,
CN-22512,NEON RAPHA HEALTHCARE CLINIC,KAKAMEGA,PRIVATE,LEVEL 3B,0.28422,34.75229,Kakamega,Success,
CN-22525,KAYOLE HOSPITAL LTD,NAIROBI,PRIVATE,LEVEL 3B,-1.27616,36.91379,"Kayole, Nairobi",Success,
CN-22551,ENABLE HEALTHCARE LIMITED,MACHAKOS,PRIVATE,LEVEL 3B,-1.279605613208,37.413530961083,Machakos,Success,
CN-22553,SATRA NURSING HOME LIMITED,WAJIR,PRIVATE,LEVEL 3A,1.75504011033,40.017147679353,Wajir,Success,
CN-22560,GETONTIRA MEDICAL CENTRE( NURSING HOME),MIGORI,PRIVATE,LEVEL 3B,-0.989136495207,34.364493855317,Migori,Success,
CN-22561,UMEYMA NURSING HOME LIMITED,MANDERA,PRIVATE,LEVEL 3A,3.370055804436,40.694029088396,Mandera,Success,
CN-22572,AFYA NURSING HOME MOYALE,MARSABIT,PRIVATE,LEVEL 4,3.15457369504,38.82767749883,"Moyale, Marsabit",Success,
CN-22595,MWIKI MODERN MATERNITY,NAIROBI,PRIVATE,LEVEL 3A,-1.2857857,36.8200253,Nairobi,Success,
CN-22615,LOPEZ MEDICARE CENTER,KISII,PRIVATE,LEVEL 3A,-0.775814232663,34.777005852014,Kisii,Success,
CN-22622,PROF.LUCAS COMMUNITY HEALTH SYSTEM,HOMA BAY,PRIVATE,LEVEL 3A,-0.545235884388,34.356395993113,Homa Bay,Success,
CN-22630,DAKARH MEDICAL SERVICES,MOMBASA,PRIVATE,LEVEL 2,-4.0574645,39.663945,Mombasa,Success,
CN-22669,UB AFRICA MEDICAL CENTRE,KAJIADO,PRIVATE,LEVEL 3B,-1.4749883,36.9612494,Batian Medical Centre,Success,
CN-22702,SCION HEALTHCARE- KWA NJENGA,NAIROBI,PRIVATE,LEVEL 3B,-1.2857857,36.8200253,Nairobi,Success,
CN-22709,AFYATELE CENTRE,SIAYA,PRIVATE,LEVEL 3A,-0.06564696176,34.248353736491,Siaya,Success,
CN-22722,TAWHEED COMMUNITY NURSING HOME HOLA,TANA RIVER,PRIVATE,LEVEL 4,-1.4959387,40.0342494,"Hola, Tana River",Success,
CN-22776,REXUS MEDICAL CENTRE,BOMET,PRIVATE,LEVEL 2,-0.72064302304,35.297853151752,Bomet,Success,
CN-22906,NUCLEAR MEDICAL AND DIAGNOSTIC CLINIC,KIRINYAGA,PRIVATE,LEVEL 3B,-0.525012949373,37.320744609382,Kirinyaga,Success,
CN-22924,MANAL MEDICAL CENTRE LIMITED,MANDERA,PRIVATE,LEVEL 3A,3.370055804436,40.694029088396,Mandera,Success,
CN-22936,MNYENZENI COMMUNITY MEDICAL CENTER LIMITED,KILIFI,PRIVATE,LEVEL 3A,-3.7930732,39.4917062,"Mnyenzeni, Kilifi",Success,
CN-22955,BOMBOLULU DIAGNOSTIC MEDICAL CENTRE,KILIFI,PRIVATE,LEVEL 3B,-3.176503150822,39.68804728776,Kilifi,Success,
CN-22966,ST. CONSOLATA KISUMU HOSPITAL,KISUMU,PRIVATE,LEVEL 3B,-0.10221,34.76171,Kisumu,Success,
CN-23041,GOPIMA MEDICAL CENTRE LIMITED,KISII,PRIVATE,LEVEL 3A,-0.775814232663,34.777005852014,Kisii,Success,
CN-23063,FAITH CFW CLINIC,EMBU,PRIVATE,LEVEL 2,-0.5379964,37.4543311,Embu,Success,
CN-23081,JOSECURE CLINIC,THARAKA-NITHI,PRIVATE,LEVEL 2,-0.206516213429,37.868692128983,Tharaka-Nithi,Success,
CN-23104,ST.MARKS ZILIPAH MEDICAL CENTRE MALAVA,KAKAMEGA,PRIVATE,LEVEL 3B,0.449992333217,34.831570514834,"Malava, Kakamega",Success,
CN-23141,CHANF COMMUNITY & FAMILY HEALTH SERVICES,KAJIADO,PRIVATE,LEVEL 3A,-1.8419404,36.7892723,Kajiado,Success,
CN-23263,IVORY HEALTH SOLUTIONS LIMITED GITHUNGURI,KIAMBU,PRIVATE,LEVEL 3A,-1.071652608601,36.788567268369,"Githunguri, Kiambu",Success,
CN-23286,"EXCEL HEALTH SERVICES, GARISSA",GARISSA,PRIVATE,LEVEL 4,-0.4459246,39.652735,Garissa,Success,
CN-23288,HASNAM MEDICAL CENTRE,MOMBASA,PRIVATE,LEVEL 3B,-4.0393706,39.7111622,RiMa Serene Medical Centre,Success,
CN-23302,KIJIJI MEDICAL CENTER,NAKURU,PRIVATE,LEVEL 3A,-0.2845127,36.0695371,Meridian Medical Centre,Success,
CN-23310,JOKEM MEDICAL CENTRE KARIENE,MERU,PRIVATE,LEVEL 2,-0.05,37.66667,"Kariene, Meru",Success,
CN-23318,MACHAKOS IMAGING CENTRE LIMITED-MATUU,MACHAKOS,PRIVATE,LEVEL 3A,-1.1445859,37.5465759,"Matuu, Machakos",Success,
CN-23338,KISII FAMILY MEDICAL CENTRE-SANSORA COMPLEX,KISII,PRIVATE,LEVEL 3A,-0.775814232663,34.777005852014,Kisii,Success,
CN-23402,CYNERT HOSPITAL AND REHABILITATION CENTRE LTD,EMBU,PRIVATE,LEVEL 3A,-0.5379964,37.4543311,Embu,Success,
CN-23425,INTERVENTION CARE CENTRE LIMITED,KIAMBU,PRIVATE,LEVEL 2,-1.1672396,36.8255013,Kiambu,Success,
CN-23513,THIKA ROAD HEALTH SERVICES LTD -PIPELINE HEALTH CENTRE,NAIROBI,PRIVATE,LEVEL 3B,-1.2857857,36.8200253,Nairobi,Success,
CN-23519,SHINING HOPE FOR COMMUNITIES MATHARE CLINIC,NAIROBI,PRIVATE,LEVEL 3B,-1.2857857,36.8200253,Nairobi,Success,
CN-23536,ATIMIROS MEMORIAL HOSPITAL,UASIN GISHU,PRIVATE,LEVEL 4,0.5133729,35.2815688,Uasin Gishu Memorial Hospital,Success,
CN-23537,PHILGRACE MEDICARE CLINIC,BOMET,PRIVATE,LEVEL 2,-0.72064302304,35.297853151752,Bomet,Success,
CN-23559,SANTA JANE MATERNITY AND NURSING HOME,KISUMU,PRIVATE,LEVEL 3B,-0.0950427,34.763237,Jalaram Nursing and Maternity,Success,
CN-23583,SHAMAAL HOSPITAL-TAKABA LIMITED,MANDERA,PRIVATE,LEVEL 4,3.35528,40.22278,"Takaba, Mandera",Success,
CN-23586,DAWASAFE MEDICAL CENTRE,NAIROBI,PRIVATE,LEVEL 4,-1.31244,36.79729,Medical Centre,Success,
CN-23589,NGUNI MEDICAL AND NURSING HOME,KITUI,PRIVATE,LEVEL 3A,-1.5075044,37.9601443,"Nguni, Kitui",Success,
CN-23628,ROYO HOSPITAL LTD,KAKAMEGA,PRIVATE,LEVEL 3B,0.273581618824,34.760964720922,"Hospital Road, Kakamega",Success,
CN-23633,MANAASH NURSING HOME LIMITED,WAJIR,PRIVATE,LEVEL 3B,1.75504011033,40.017147679353,Wajir,Success,
CN-23658,GLORY CFW CLINIC,KIRINYAGA,PRIVATE,LEVEL 2,-0.525012949373,37.320744609382,Kirinyaga,Success,
CN-23666,WESTERN FAMILY HOSPITAL LIMITED,TRANS-NZOIA,PRIVATE,LEVEL 4,1.050719398347,34.957014580558,Trans Nzoia,Success,
CN-23726,BUYA MEDICAL CENTRE LIMITED,MANDERA,PRIVATE,LEVEL 3B,3.370055804436,40.694029088396,Mandera,Success,
CN-23757,MANOTI TUMAINI MEDICAL CENTRE,MIGORI,PRIVATE,LEVEL 3A,-0.989136495207,34.364493855317,Migori,Success,
CN-23778,ERIN MEDICAL AND WELLNESS CENTRE,VIHIGA,PRIVATE,LEVEL 3B,0.080244585317,34.730720378013,Vihiga,Success,
CN-23793,KALMEYEE NURSING HOME LIMITED,MANDERA,PRIVATE,LEVEL 3A,3.370055804436,40.694029088396,Mandera,Success,
CN-23800,SHALOM HOSPITAL,MACHAKOS,PRIVATE,LEVEL 4,-1.5247061,37.2662643,Shalom Hospital,Success,
CN-23830,KATHATHANI MEDICAL CENTRE,THARAKA-NITHI,PRIVATE,LEVEL 3A,-0.206516213429,37.868692128983,Tharaka-Nithi,Success,
CN-23882,AMIRUMEYS NURSING HOME LTD,MANDERA,PRIVATE,LEVEL 3B,3.370055804436,40.694029088396,Mandera,Success,
CN-23967,ST.SHEMUS PARK MEDICAL CENTRE,TRANS-NZOIA,PRIVATE,LEVEL 2,1.050719398347,34.957014580558,Trans Nzoia,Success,
CN-24020,DAWIDA ANNEX HOSPITAL LIMITED,TAITA-TAVETA,PRIVATE,LEVEL 3A,-3.4188755,38.3023312,"Dabida, Taita Taveta",Success,
CN-24032,MEDICYL HOSPITAL CARE LIMITED,MANDERA,PRIVATE,LEVEL 3B,3.370055804436,40.694029088396,Mandera,Success,
CN-24033,ELICARE MEDICAL CLINIC,BARINGO,PRIVATE,LEVEL 2,0.671904478344,35.940931127722,Baringo,Success,
CN-24055,MERU FAMILY MEDICAL CENTRE,MERU,PRIVATE,LEVEL 3B,0.04503,37.652022,Family Care Medical Centre,Success,
CN-24066,SOUTH LAKE MEDICAL CENTRE LIMITED-KARAGITA,NAKURU,PRIVATE,LEVEL 2,-0.2806559,36.0794189,Nakuru,Success,
CN-24074,MARK TUMAINI MEDICAL CENTRE,KIAMBU,PRIVATE,LEVEL 2,-1.1672396,36.8255013,Kiambu,Success,
CN-24121,MEDISTAR HOSPITAL KERICHO LIMITED,KERICHO,PRIVATE,LEVEL 4,-0.3682293,35.2854418,Kericho,Success,
CN-24142,ELDORET ONCOLOGY ASSOCIATES,UASIN GISHU,PRIVATE,LEVEL 4,0.5184695,35.2739056,"Eldoret, Uasin Gishu",Success,
CN-24147,EASTVALLEY NURSING HOME,NAKURU,PRIVATE,LEVEL 3B,-0.2806559,36.0794189,Nakuru,Success,
CN-24222,PATANISHO MATERNITY &amp; NURSING HOME,NAIROBI,PRIVATE,LEVEL 4,-1.2857857,36.8200253,Nairobi,Success,
CN-24226,FRALOMA HOSPITAL LIMITED,KITUI,PRIVATE,LEVEL 3A,-1.493161090519,38.407478986946,Kitui,Success,
CN-24228,NASAH MEDICAL CENTER LTD,WAJIR,PRIVATE,LEVEL 3B,1.75504011033,40.017147679353,Wajir,Success,
CN-24239,OAK TREE CENTRE FOR KIDNEY &amp; CHRONIC DISEASES LTD,UASIN GISHU,PRIVATE,LEVEL 4B,0.521314476021,35.31977624114,Uasin Gishu,Success,
CN-24243,WATAMU HOSPITAL,KILIFI,PRIVATE,LEVEL 3A,-3.3524945,40.0155608,"Watamu, Kilifi",Success,
CN-24273,ARROWS CARE MEDICAL CENTER,HOMA BAY,PRIVATE,LEVEL 3A,-0.545235884388,34.356395993113,Homa Bay,Success,
CN-24305,MKARE MEDICAL CLINIC,TAITA-TAVETA,PRIVATE,LEVEL 2,-3.436547605259,38.417882139111,Taita Taveta,Success,
CN-24315,NYALI HEALTH CARE LTD,MOMBASA,PRIVATE,LEVEL 3B,-4.030870954311,39.702675994868,"Nyali, Mombasa",Success,
CN-24343,KAPSABET SURGICAL CARE CENTRE LTD,NANDI,PRIVATE,LEVEL 4,0.182680842869,35.108710560862,Nandi,Success,
CN-24350,SOUTH WAY MEDICAL CENTER LIMITED,MANDERA,PRIVATE,LEVEL 3A,3.370055804436,40.694029088396,Mandera,Success,
CN-24377,TRANSELGON HEALTHCARE LIMITED-BUNGOMA,BUNGOMA,PRIVATE,LEVEL 3A,0.5705677,34.5599957,Bungoma,Success,
CN-24432,RAMAAZI NURSING HOME LIMITED,WAJIR,PRIVATE,LEVEL 3B,1.75504011033,40.017147679353,Wajir,Success,
CN-24462,JOY MORANGI MEDICAL CENTRE,NYAMIRA,PRIVATE,LEVEL 3B,-0.640626239534,34.967387947932,Nyamira,Success,
CN-24467,MANGANI MEDICARE CENTRE,KITUI,PRIVATE,LEVEL 2,-1.493161090519,38.407478986946,Kitui,Success,
CN-24501,VITCARE MEDICAL CENTER,NAKURU,PRIVATE,LEVEL 2,-0.2845127,36.0695371,Meridian Medical Centre,Success,
CN-24508,BURGUBUD NURSING HOME LTD,MANDERA,PRIVATE,LEVEL 3B,3.370055804436,40.694029088396,Mandera,Success,
CN-24560,ST NKIRIA MEDICAL CENTRE,LAIKIPIA,PRIVATE,LEVEL 3A,0.321036458859,36.76507926291,Laikipia,Success,
CN-24564,MTWAPA MEDICAL CLINIC AND NURSING HOME,KILIFI,PRIVATE,LEVEL 3B,-3.946128,39.7450722,"Mtwapa, Kilifi",Success,
CN-24570,ALEX AND ASSOCIATES EYE CARE CENTRE,KAJIADO,PRIVATE,LEVEL 2,-1.8419404,36.7892723,Kajiado,Success,
CN-24608,EKALAKALA NURSING HOME LIMITED,MACHAKOS,PRIVATE,LEVEL 3B,-0.95662,37.51959,"Ekalakala, Machakos",Success,
CN-24646,WATAMU MATERNITY & NURSING HOME,KILIFI,PRIVATE,LEVEL 3B,-3.3524945,40.0155608,"Watamu, Kilifi",Success,
CN-24658,GATES OF HOPE FAMILY MEDICARE CENTRE,KIAMBU,PRIVATE,LEVEL 3B,-1.1672396,36.8255013,Kiambu,Success,
CN-24662,HOPEM MEDICAL CENTRE,BUNGOMA,PRIVATE,LEVEL 3A,0.748950071987,34.640152743934,Bungoma,Success,
CN-24705,EQUITY AFIA LANGATA,NAIROBI,PRIVATE,LEVEL 3B,-1.3455658,36.7424757,"Langata, Nairobi",Success,
CN-24720,HILL WOOD HEALTH CARE LIMITED,KWALE,PRIVATE,LEVEL 3A,-4.148612987152,39.155718067611,Kwale,Success,
CN-24730,ST CHRISTOPHERS DAMA COMMUNITY MEDICAL CENTRE,KISUMU,PRIVATE,LEVEL 3A,-0.173053648767,34.839859182104,Kisumu,Success,
CN-24760,NARAMATISHO MEDICAL CLINIC,KAJIADO,PRIVATE,LEVEL 2,-1.8419404,36.7892723,Kajiado,Success,
CN-24775,AVOYA MEDICAL CENTER,TRANS-NZOIA,PRIVATE,LEVEL 3A,1.050719398347,34.957014580558,Trans Nzoia,Success,
CN-24778,GALAXY MEDICARE CONSULTANTS LTD,KIAMBU,PRIVATE,LEVEL 3A,-1.1672396,36.8255013,Kiambu,Success,
CN-24799,JUWFIAH MEDICAL CENTRE,KISII,PRIVATE,LEVEL 3B,-0.674413,34.770912,Kisii Medical Centre,Success,
CN-24830,ACUTEST HOSPITALS LTD,KIAMBU,PRIVATE,LEVEL 2,-1.267019529144,36.670491161061,"Hospital Road, Gikambura",Success,
CN-24858,USHIRIKA ELITE HOSPITAL LIMITED,NAIROBI,PRIVATE,LEVEL 4,-1.2857857,36.8200253,Nairobi,Success,
CN-24928,PSYCHCARE KENYA LTD-CLINIC,NAIROBI,PRIVATE,LEVEL 2,-1.2857857,36.8200253,Nairobi,Success,
CN-24935,EDDMERC MEDICAL CENTRE,KAJIADO,PRIVATE,LEVEL 3A,-1.4749883,36.9612494,Batian Medical Centre,Success,
CN-25089,APPEX HOSPITAL,BUSIA,PRIVATE,LEVEL 3B,0.4480772,34.2407811,Hospital,Success,
CN-25090,WAJIRWEST ROADSIDE MEDICAL CENTRE AND LABORATORY,WAJIR,PRIVATE,LEVEL 3B,1.688570196567,39.542999415488,"Wajir West, Wajir",Success,
CN-25098,OUR HEALTH MEDICAL CENTRE LTD,KAKAMEGA,PRIVATE,LEVEL 3B,0.28422,34.75229,Kakamega,Success,
CN-25109,QUEEN RIVERS MEDICAL CENTRE,HOMA BAY,PRIVATE,LEVEL 3A,-0.545235884388,34.356395993113,Homa Bay,Success,
CN-25134,FANAKA MEDICAL CENTRE,MACHAKOS,PRIVATE,LEVEL 2,-1.279605613208,37.413530961083,Machakos,Success,
CN-25138,OASIS HEALTH DOCTORS PLAZA ELDORET LIMITED,UASIN GISHU,PRIVATE,LEVEL 3A,0.5162612,35.2798835,Eldoret Hospital Doctors Plaza,Success,
CN-25152,ULTRAMED HEALTHCARE LIMITED -MKAPUNI,KILIFI,PRIVATE,LEVEL 2,-3.176503150822,39.68804728776,Kilifi,Success,
CN-25173,ALPHA HILL MEDICAL CENTER LIMITED,NANDI,PRIVATE,LEVEL 4,0.182680842869,35.108710560862,Nandi,Success,
CN-25248,CAAFI MEDICAL CENTER LIMITED,WAJIR,PRIVATE,LEVEL 3B,1.75504011033,40.017147679353,Wajir,Success,
CN-25259,AKITHII MEDICAL CENTRE,MERU,PRIVATE,LEVEL 3B,0.2,37.76667,"Akithii, Meru",Success,
CN-25284,ALEN WALES LOLGORIAN MEDICAL CLINIC,NAROK,PRIVATE,LEVEL 3A,-1.2300591,34.8085084,"Lolgorien, Narok",Success,
CN-25287,CKS DIALYSIS CENTRE - BURUBURU,NAIROBI,PRIVATE,LEVEL 4B,-1.2857857,36.8200253,Nairobi,Success,
CN-25315,MWELLA HEALTHCARE CENTER,BUNGOMA,PRIVATE,LEVEL 3A,0.748950071987,34.640152743934,Bungoma,Success,
CN-25384,MOSHI MEDICAL CENTRE,MIGORI,PRIVATE,LEVEL 3A,-0.989136495207,34.364493855317,Migori,Success,
CN-25419,MEDSCALES MEDICAL CLINIC,KISII,PRIVATE,LEVEL 3A,-0.775814232663,34.777005852014,Kisii,Success,
CN-25430,CANSPI HOSPITAL RUAKA,KIAMBU,PRIVATE,LEVEL 3A,-1.1976545,36.7553529,"Ruaka, Kiambaa, Kiambu",Success,
CN-25456,EDESA MEDICARE BUNGOMA,BUNGOMA,PRIVATE,LEVEL 3A,0.5705677,34.5599957,Bungoma,Success,
CN-25460,BEYONDSCOPE HOSPITAL,MOMBASA,PRIVATE,LEVEL 4,-4.058813238121,39.671819391181,"Hospital Street, Mombasa",Success,
CN-25464,RAYAAN HOSPITAL DIANI LIMITED,KWALE,PRIVATE,LEVEL 3B,-4.33333,39.53333,"Diani, Kwale",Success,
CN-25482,ESHISIRU MEDICAL COTTAGE,KAKAMEGA,PRIVATE,LEVEL 3A,0.2835999,34.6708002,"Eshisiru, Kakamega",Success,
CN-25501,AL-KAWTHAR WELLNESS CENTRE LIMITED,WAJIR,PRIVATE,LEVEL 4,1.75504011033,40.017147679353,Wajir,Success,
CN-25506,MEDIHEALTH INVESTMENT GROUP LTD,KERICHO,PRIVATE,LEVEL 2,-0.296882276918,35.307304593825,Kericho,Success,
CN-25533,MEDSWELL PHARMACY AND MEDICAL CENTRE,HOMA BAY,PRIVATE,LEVEL 3A,-0.545235884388,34.356395993113,Homa Bay,Success,
CN-25560,LADNAN HOSPITAL,NAIROBI,PRIVATE,LEVEL 5,-1.302816508735,36.809301579489,"Hospital Road, Kibra",Success,
CN-25564,CEDAR MEDICAL CLINIC,KAJIADO,PRIVATE,LEVEL 2,-1.397423,36.754701,Elite Medical Clinic,Success,
CN-25587,WAJIR MATERNITY AND NURSING HOME LTD,WAJIR,PRIVATE,LEVEL 4,1.7471,40.05732,Wajir,Success,
CN-25592,VELMA MEMORIAL MEDICAL CENTRE,KIRINYAGA,PRIVATE,LEVEL 4,-0.525012949373,37.320744609382,Kirinyaga,Success,
CN-25617,BRISTOL PARK HOSPITAL FEDHA,NAIROBI,PRIVATE,LEVEL 4,-1.31322,36.89794,"Fedha, Nairobi",Success,
CN-25621,JAMBO CLINIC ENTERPRISES,KISUMU,PRIVATE,LEVEL 2,-0.173053648767,34.839859182104,Kisumu,Success,
CN-25653,NYAMBENE CLINICAL SERVICES AND NURSING HOME,MERU,PRIVATE,LEVEL 4,0.166838927273,37.764590845633,Meru,Success,
CN-25665,CHURCH ROAD MEDICAL CENTER LTD,NAIROBI,PRIVATE,LEVEL 3A,-1.2697736,36.845211,Park Medical Center Ltd,Success,
CN-25669,RIVERSITE MEDICAL CLINIC,NAIROBI,PRIVATE,LEVEL 2,-1.288897,36.909507,Hope Medical Clinic,Success,
CN-25672,SAMARITANHOPE MATERNITY AND NURSING HOME LIMITED,NAKURU,PRIVATE,LEVEL 3B,-0.3020257,35.8135651,Elburgon Nursing & Maternity Home,Success,
CN-25708,FOCUS CLINICAL AND DIAGNOSTIC CENTRE -SOKO BRANCH,KIRINYAGA,PRIVATE,LEVEL 3A,-0.525012949373,37.320744609382,Kirinyaga,Success,
CN-25785,BLISS HEALTHCARE LIMITED MTWAPA,KILIFI,PRIVATE,LEVEL 3B,-3.946128,39.7450722,"Mtwapa, Kilifi",Success,
CN-25794,HAMAT HEALTHCARE LIMITED,KIAMBU,PRIVATE,LEVEL 3A,-1.1526617,36.6425166,Signature Healthcare Limited,Success,
CN-25795,THIKA ROAD HEALTH SERVICES LIMITED - BURUBURU HEALTH CENTER,NAIROBI,PRIVATE,LEVEL 3A,-1.2857857,36.8200253,Nairobi,Success,
CN-25809,KISASI KITUI BY GRACE CLINIC,KITUI,PRIVATE,LEVEL 2,-1.5284142,38.0235777,"Kisasi, Kitui",Success,
CN-25810,BUNGOMA ADORAH CLINIC,BUNGOMA,PRIVATE,LEVEL 2,0.5705677,34.5599957,Bungoma,Success,
CN-25858,LAFE MEDICAL CLINIC,KISUMU,PRIVATE,LEVEL 2,0.0036694,34.6060108,Clinic,Success,
CN-25902,KERUGOYA FORTIS MEDICAL AND CANCER CENTRE TOWN ANNEX,KIRINYAGA,PRIVATE,LEVEL 3A,-0.49887,37.28031,"Kerugoya, Kirinyaga",Success,
CN-25911,NAITIRI JAMBO MEDICAL CLINIC,BUNGOMA,PRIVATE,LEVEL 3A,0.748950071987,34.640152743934,Bungoma,Success,
CN-26009,MWOANDA MEDICAL HEALTHCARE CLINIC,NYANDARUA,PRIVATE,LEVEL 2,-0.323536777902,36.481864588175,Nyandarua,Success,
CN-26012,DABAA NURSING HOME LIMITED,MANDERA,PRIVATE,LEVEL 3B,3.370055804436,40.694029088396,Mandera,Success,
CN-26064,CHRIZAH MEDICAL CLINIC LIMITED,BUNGOMA,PRIVATE,LEVEL 2,0.748950071987,34.640152743934,Bungoma,Success,
CN-26187,RFH HEALTHCARE -KIAMBU ROAD,KIAMBU,PRIVATE,LEVEL 4,-1.148609620962,36.806887550207,"Kiambu Road, Kiambu",Success,
CN-26193,MACHAKOS DOCTORS PLAZA LTD,MACHAKOS,PRIVATE,LEVEL 4,-1.5184295,37.2668947,Machakos,Success,
CN-26210,WEMA MEDKIN MEDICAL CENTER,KIRINYAGA,PRIVATE,LEVEL 3A,-0.525012949373,37.320744609382,Kirinyaga,Success,
CN-26214,ELITE MEDICAL CENTRE,NYANDARUA,PRIVATE,LEVEL 2,-0.323536777902,36.481864588175,Nyandarua,Success,
CN-26244,KATITO MEDICAL CENTRE-SONDU,KISUMU,PRIVATE,LEVEL 3A,-0.386703,35.01037,Sondu Health Centre,Success,
CN-26246,ST.PETERS OPTICAL & DENTAL OUT PATIENT SERVICES,MAKUENI,PRIVATE,LEVEL 3B,-2.160192128139,37.789123486634,Makueni,Success,
CN-26300,BERIL\\'S GWP MEDICAL CENTER,HOMA BAY,PRIVATE,LEVEL 3A,-0.545235884388,34.356395993113,Homa Bay,Success,
CN-26302,KAKAMEGA FAMILY HEALTH CENTRE,KAKAMEGA,PRIVATE,LEVEL 2,0.1304458,34.6745821,Health Centre,Success,
CN-26326,RENIT HEALTHCARE LIMTED,KAKAMEGA,PRIVATE,LEVEL 3A,0.28422,34.75229,Kakamega,Success,
CN-26329,SHIFA MATERNAL AND CHILD CARE LIMITED,GARISSA,PRIVATE,LEVEL 3B,-0.4459246,39.652735,Garissa,Success,
CN-26344,BAKARI MEDICAL CLINIC,KWALE,PRIVATE,LEVEL 3B,-4.1797425,39.5651272,Digo Medical Clinic,Success,
CN-26350,BETA CARE HOSPITAL LTD,KIAMBU,PRIVATE,LEVEL 4,-1.267019529144,36.670491161061,"Hospital Road, Gikambura",Success,
CN-26370,BLUE NILE MKOROSHONI MEDICAL CENTRE LTD,KILIFI,PRIVATE,LEVEL 3B,-3.176503150822,39.68804728776,Kilifi,Success,
CN-26378,ST. LUKE UPSTATE MEDICAL CLINIC,NAIROBI,PRIVATE,LEVEL 2,-1.2861836,36.8447974,Clinic,Success,
CN-26388,EMMANUEL COMMUNITY HOSPITAL LIMITED,NAIROBI,PRIVATE,LEVEL 3B,-1.2487783,36.9488986,Emmanuel Community Hospital,Success,
CN-26421,TAZLIM HOSPITAL LIMITED,MARSABIT,PRIVATE,LEVEL 3A,2.980491275449,37.570848791063,Marsabit,Success,
CN-26454,PARK EYE CENTRE,NAIROBI,PRIVATE,LEVEL 4,-1.2857857,36.8200253,Nairobi,Success,
CN-26467,MEDITRUST HEALTHCARE SERVICES,MOMBASA,PRIVATE,LEVEL 3B,-4.0574645,39.663945,Mombasa,Success,
CN-26477,KANNIKA INTERNATIONAL LTD(HOSPITAL)-TOM MBOYA,KISUMU,PRIVATE,LEVEL 4,-0.173053648767,34.839859182104,Kisumu,Success,
CN-26495,DOLABS MEDICAL CENTRE LIMITED,KISII,PRIVATE,LEVEL 3A,-0.775814232663,34.777005852014,Kisii,Success,
CN-26522,CASMED MEDICAL CENTER CHOGORIA,THARAKA-NITHI,PRIVATE,LEVEL 2,-0.2292557,37.6259082,"Chogoria, Tharaka-Nithi",Success,
CN-26523,SIPILI MATERNITY AND NURSING HOME,LAIKIPIA,PRIVATE,LEVEL 4,0.321036458859,36.76507926291,Laikipia,Success,
CN-26532,QASIMS HOSPITAL LIMITED,KISII,PRIVATE,LEVEL 4,-0.775814232663,34.777005852014,Kisii,Success,
CN-26556,TUTI MEDICAL CLINIC,NAKURU,PRIVATE,LEVEL 2,-0.2989828,36.067634,Al-Gadhir Medical Clinic,Success,
CN-26557,ZION MEDICAL CENTRE - BUNGOMA LIMITED,BUNGOMA,PRIVATE,LEVEL 4,0.748950071987,34.640152743934,Bungoma,Success,
CN-26597,THE KITUI HOSPITAL MATERNITY & NURSING HOME,KITUI,PRIVATE,LEVEL 4,-1.3650093,38.0115738,Kitui,Success,
CN-26646,VICHABEM NURSING HOME,MERU,PRIVATE,LEVEL 3B,0.166838927273,37.764590845633,Meru,Success,
CN-26679,ILHAAM MEDICAL AND RECOVERY CENTRE,GARISSA,PRIVATE,LEVEL 3A,-0.4459246,39.652735,Garissa,Success,
CN-26717,RADHEYSHYAM MEDICAL CENTRE LIMITED,MANDERA,PRIVATE,LEVEL 3A,3.370055804436,40.694029088396,Mandera,Success,
CN-26746,MAWEPI MEDICAL AND INTERGRATED COMMUNITY CENTRE,KAJIADO,PRIVATE,LEVEL 3B,-1.8419404,36.7892723,Kajiado,Success,
CN-26795,TECHNICAL UNIVERSITY OF KENYA,NAIROBI,PRIVATE,LEVEL 2,-1.291401,36.824514,Technical University Of Kenya,Success,
CN-26796,HEART OF HOPE MEDICAL CENTRE,KIAMBU,PRIVATE,LEVEL 2,-1.168688,36.8288123,Vision of Hope Medical Centre,Success,
CN-26803,FAYYA NURSING HOME,MARSABIT,PRIVATE,LEVEL 4,2.980491275449,37.570848791063,Marsabit,Success,
CN-26828,VINEYARD HOSPITAL LTD,KIAMBU,PRIVATE,LEVEL 4,-1.267019529144,36.670491161061,"Hospital Road, Gikambura",Success,
CN-26836,LAPKEYET BETALIFE MEDICAL LIMITED,KERICHO,PRIVATE,LEVEL 3A,-0.296882276918,35.307304593825,Kericho,Success,
CN-26869,CHEMASE DISPENSARY,KERICHO,PRIVATE,LEVEL 2,-0.3693063,35.1760372,Dispensary,Success,
CN-26878,MONACS HEALTH KENYA LIMITED,KAJIADO,PRIVATE,LEVEL 3B,-1.8419404,36.7892723,Kajiado,Success,
CN-26898,LAFEYCARE NURSING HOME,MANDERA,PRIVATE,LEVEL 3B,3.411623228816,41.178191099084,"Lafey, Mandera",Success,
CN-26921,LADOPHARMA MEDICAL CENTRE-MASARA LTD,MIGORI,PRIVATE,LEVEL 3B,-1.0256869,34.3282819,"Masara, Migori",Success,
CN-26954,THE RIVER JORDAN MEDICAL CENTER MAUNGU,TAITA-TAVETA,PRIVATE,LEVEL 3A,-3.5618523,38.7479234,"Maungu, Taita Taveta",Success,
CN-26988,JOSHIMO MEDICAL CENTRE,NYAMIRA,PRIVATE,LEVEL 3A,-0.640626239534,34.967387947932,Nyamira,Success,
CN-27053,NOTRE DAME MEDICAL CENTRE LIMITED,NAKURU,PRIVATE,LEVEL 3A,-0.2806559,36.0794189,Nakuru,Success,
CN-27068,RFH HEALTHCARE LTD-EMBAKASI MEDICAL CLINIC,NAIROBI,PRIVATE,LEVEL 3A,-1.3049235,36.8324167,Beta Health Care Limited,Success,
CN-27101,IMANI YAKO MEDICAL CLINIC,MACHAKOS,PRIVATE,LEVEL 3A,-1.279605613208,37.413530961083,Machakos,Success,
CN-27128,PROMED WELLNESS CENTRE LTD,MURANGA,PRIVATE,LEVEL 3B,-0.7180943,37.1589456,"Muranga, Murang'a",Success,
CN-27172,WONDERPEACE WELLNESS CENTER LIMITED,KIAMBU,PRIVATE,LEVEL 3B,-1.1672396,36.8255013,Kiambu,Success,
CN-27176,REVELATION MEDICAL SERVICES,NAIROBI,PRIVATE,LEVEL 2,-1.2701309,36.8348377,Meco Medical Services,Success,
CN-27182,FOCUS CLINICAL AND DIAGNOSTICS CENTRE LTD MURANG\\'A,MURANGA,PRIVATE,LEVEL 3A,-0.7180943,37.1589456,"Muranga, Murang'a",Success,
CN-27241,HARERI HEALTHCARE SERVICES LTD,MANDERA,PRIVATE,LEVEL 3B,3.370055804436,40.694029088396,Mandera,Success,
CN-27291,HURUMA CFW CLINIC,EMBU,PRIVATE,LEVEL 2,-1.25776,36.8731186,"Huruma, Mathare, Nairobi",Success,
CN-27391,AL NASRI NURSING HOME LTD,WAJIR,PRIVATE,LEVEL 3B,1.75504011033,40.017147679353,Wajir,Success,
CN-27412,EDINBURGH MOUNTAIN HOSPITAL LIMITED,MURANGA,PRIVATE,LEVEL 4,-0.7180943,37.1589456,"Muranga, Murang'a",Success,
CN-27417,MUTI MEDICAL CENTRE LTD,MURANGA,PRIVATE,LEVEL 2,-0.7180943,37.1589456,"Muranga, Murang'a",Success,
CN-27579,KAPSIA HEALTH CARE,ELGEYO-MARAKWET,PRIVATE,LEVEL 2,0.799371947909,35.536865408174,Elgeyo-Marakwet,Success,
CN-27665,JAKABA MEDICAL CLINIC,KILIFI,PRIVATE,LEVEL 3B,-3.9159737,39.5828209,Medical Centre,Success,
CN-27688,BROOKLYN MEDICAL CENTRE,BOMET,PRIVATE,LEVEL 3B,-0.72064302304,35.297853151752,Bomet,Success,
CN-27689,ZONAL ANNEX MATERNITY AND NURSING HOME,MANDERA,PRIVATE,LEVEL 4,3.370055804436,40.694029088396,Mandera,Success,
CN-27754,MWEA MEDICAL CENTRE,KIRINYAGA,PRIVATE,LEVEL 4,-0.649619343166,37.388944632388,"Mwea, Kirinyaga",Success,
CN-27761,LUKENYA MEDICAL CENTRE,MACHAKOS,PRIVATE,LEVEL 3B,-1.5104707,37.1599097,"Lukenya, Machakos",Success,
CN-27775,KILIWE NURSING HOME LIMITED,MANDERA,PRIVATE,LEVEL 3A,3.370055804436,40.694029088396,Mandera,Success,
CN-27784,IGARE MEDICAL SERVICES,KISII,PRIVATE,LEVEL 3A,-0.8038122,34.8041104,"Igare, Kisii",Success,
CN-27869,PEMAH NURSING & MATERNITY HOME,SIAYA,PRIVATE,LEVEL 3A,-0.06564696176,34.248353736491,Siaya,Success,
CN-27920,MARIAKANI COMMUNITY HEALTH SERVICES,KILIFI,PRIVATE,LEVEL 2,-3.176503150822,39.68804728776,Kilifi,Success,
CN-27921,NEP NURSING AND REHABILITATION CENTRE,GARISSA,PRIVATE,LEVEL 4B,-0.4459246,39.652735,Garissa,Success,
CN-27932,ANKA HOSPITAL LIMITED,NAIROBI,PRIVATE,LEVEL 4,-1.3181775,36.8937632,Afrismart Group of Hospitals LTD,Success,
CN-27974,FURAHA MEDICAL CARE,KIRINYAGA,PRIVATE,LEVEL 4,-0.525012949373,37.320744609382,Kirinyaga,Success,
CN-27980,WE-BARAKA HOSPITAL -KISHON BRANCH,NAROK,PRIVATE,LEVEL 2,-1.257270424837,35.575800972424,Narok,Success,
CN-27993,SHIBALE MEDICAL CENTRE,KAKAMEGA,PRIVATE,LEVEL 3A,0.2902862,34.7680823,Lupe Medical Centre,Success,
CN-28008,CAREMARK HOSPITAL,NAIROBI,PRIVATE,LEVEL 3A,-1.302816508735,36.809301579489,"Hospital Road, Kibra",Success,
CN-28029,GALILEO FAMILY HEALTH SERVICES AND CLINIC LIMITED,KILIFI,PRIVATE,LEVEL 3B,-3.176503150822,39.68804728776,Kilifi,Success,
CN-28054,LAMHEAL MATERNITY AND NURSING HOME,NYAMIRA,PRIVATE,LEVEL 3B,-0.581044,34.935357,Nyamira Maternity and Nursing Home,Success,
CN-28117,MELITA MEDICAL CENTER,BUNGOMA,PRIVATE,LEVEL 2,0.748950071987,34.640152743934,Bungoma,Success,
CN-28148,REMSA MEDICAL CENTRE,MIGORI,PRIVATE,LEVEL 2,-0.989136495207,34.364493855317,Migori,Success,
CN-28288,ORTHOPEX MEDICAL CLINIC KISUMU,KISUMU,PRIVATE,LEVEL 3A,-0.10221,34.76171,Kisumu,Success,
CN-28330,VILL-ANGEL MEDICAL CLINIC,TRANS-NZOIA,PRIVATE,LEVEL 2,1.050719398347,34.957014580558,Trans Nzoia,Success,
CN-28358,NYALENDA CHRISTIAN NURSING HOME,HOMA BAY,PRIVATE,LEVEL 3A,-0.4716064,34.7336247,"Nyalenda, Homa Bay",Success,
CN-28373,OTHOFIX ORTHOPAEDIC AND TRAUMA CENTRE LIMITED,MAKUENI,PRIVATE,LEVEL 3A,-2.160192128139,37.789123486634,Makueni,Success,
CN-28429,BENANE NURSING HOME LIMITED,GARISSA,PRIVATE,LEVEL 3A,-0.4459246,39.652735,Garissa,Success,
CN-28472,PIPELINE MATERNITY &amp; NURSING HOME,NAIROBI,PRIVATE,LEVEL 3B,-1.2857857,36.8200253,Nairobi,Success,
CN-28473,NORTHLIFE HEALTHCARE SERVICES LTD,MANDERA,PRIVATE,LEVEL 3A,3.370055804436,40.694029088396,Mandera,Success,
CN-28517,FREVANE HOSPITAL,EMBU,PRIVATE,LEVEL 4,-0.4063725,37.5989713,Hospital,Success,
CN-28561,FIIQ MEDICAL CLINIC AND EYE CARE CENTRE LIMITED,WAJIR,PRIVATE,LEVEL 3A,1.75504011033,40.017147679353,Wajir,Success,
CN-28711,IGENA MEDICAL CLINIC,MIGORI,PRIVATE,LEVEL 2,-0.8471809,34.1848542,Clinic,Success,
CN-28727,KIANJOKOMA PURE MEDICARE HOSPITAL,EMBU,PRIVATE,LEVEL 3A,-0.41667,37.51667,"Kianjokoma, Embu",Success,
CN-28778,MAMA FREDA MEDICAL CENTRE,MIGORI,PRIVATE,LEVEL 3B,-0.989136495207,34.364493855317,Migori,Success,
CN-28785,ELDORA EYE & OPTICAL CENTRE LIMITED,UASIN GISHU,PRIVATE,LEVEL 2,0.521314476021,35.31977624114,Uasin Gishu,Success,
CN-28865,TIMELINE HEALTHCARE LIMITED,MANDERA,PRIVATE,LEVEL 3B,3.370055804436,40.694029088396,Mandera,Success,
CN-28887,NEEMA HOSPITAL,KIAMBU,PRIVATE,LEVEL 4,-1.0174562,36.9032367,Hospital,Success,
CN-28889,SPACE CARE HEALTH SERVICES,NAIROBI,PRIVATE,LEVEL 2,-1.2843292,36.8210593,AAR Health Services,Success,
CN-28924,UMI MEDICAL CENTRE LIMITED,MANDERA,PRIVATE,LEVEL 3A,3.370055804436,40.694029088396,Mandera,Success,
CN-28929,AHERO MEDICAL CENTER,KISUMU,PRIVATE,LEVEL 3B,-0.1725851,34.9187349,"Ahero, Kisumu",Success,
CN-28947,MAENDELEO HEALTH SERVICES,BUNGOMA,PRIVATE,LEVEL 3A,0.748950071987,34.640152743934,Bungoma,Success,
CN-28991,TRUST OPTICIANS LIMITED,NAIROBI,PRIVATE,LEVEL 2,-1.2857857,36.8200253,Nairobi,Success,
CN-29011,SAYAYI HOSPITAL LIMITED,MIGORI,PRIVATE,LEVEL 3B,-0.989136495207,34.364493855317,Migori,Success,
CN-29031,NDHIWA BORA BORA MEDICAL CENTRE,HOMA BAY,PRIVATE,LEVEL 2,-0.741696585397,34.379984109323,"Ndhiwa, Homa Bay",Success,
CN-29045,MERU AVENUE MEDICAL PLAZA,MERU,PRIVATE,LEVEL 2,0.046389,37.6527529,Meru,Success,
CN-29057,SHEBA MEDICAL CENTRE LTD,NAIROBI,PRIVATE,LEVEL 2,-1.2697736,36.845211,Park Medical Center Ltd,Success,
CN-29059,ST. JOHNS HOSPITAL LTD,NAIROBI,PRIVATE,LEVEL 4,-1.2035229,36.914697,Saint John Hospital,Success,
CN-29087,BLISS HEALTHCARE LIMITED KERUGOYA,KIRINYAGA,PRIVATE,LEVEL 2,-0.49887,37.28031,"Kerugoya, Kirinyaga",Success,
CN-29116,FIGO CARE PLUS (K) LIMITED,NAIROBI,PRIVATE,LEVEL 3B,-1.2857857,36.8200253,Nairobi,Success,
CN-29178,NEEMA MEDICAL SERVICES,UASIN GISHU,PRIVATE,LEVEL 2,0.521314476021,35.31977624114,Uasin Gishu,Success,
CN-29188,FOUNTAIN HEALTHCARE LTD BUNGOMA,BUNGOMA,PRIVATE,LEVEL 4,0.5705677,34.5599957,Bungoma,Success,
CN-29206,AVENUE HOSPITAL THIKA,KIAMBU,PRIVATE,LEVEL 4,-1.0456234,37.0751363,"Thika, Kiambu",Success,
CN-29251,SOWETO KAYOLE PRIMARY HEALTH CENTRE,NAIROBI,PRIVATE,LEVEL 3B,-1.2857857,36.8200253,Nairobi,Success,
CN-29314,SAVANNAH ROYAL HOSPITAL GARISSA LIMITED,GARISSA,PRIVATE,LEVEL 4,-0.4459246,39.652735,Garissa,Success,
CN-29317,SHEWA MEDICAL CLINIC LIMITED,MANDERA,PRIVATE,LEVEL 3B,3.370055804436,40.694029088396,Mandera,Success,
CN-29353,BARTS MEDICAL LIMITED,MANDERA,PRIVATE,LEVEL 3B,3.370055804436,40.694029088396,Mandera,Success,
CN-29357,AL-RASHAD MEDICAL CENTRE,GARISSA,PRIVATE,LEVEL 2,-0.4513357,39.6459576,Ankara Medical Centre,Success,
CN-29361,ULTRA KATHIANI HOSPITAL LIMITED,MACHAKOS,PRIVATE,LEVEL 4,-1.4163214711,37.298467027939,"Kathiani, Machakos",Success,
CN-29366,WESTLIFE HOSPITAL LIMITED,KISII,PRIVATE,LEVEL 4,-0.775814232663,34.777005852014,Kisii,Success,
CN-29415,MATATA NURSING HOME,HOMA BAY,PRIVATE,LEVEL 4,-0.545235884388,34.356395993113,Homa Bay,Success,
CN-29416,SAWA SAWA HEALTH SERVICES,KIAMBU,PRIVATE,LEVEL 2,-1.171808,36.82904,Vam Health Services,Success,
CN-29443,THE QORAHEY NURSING HOME LIMITED,MANDERA,PRIVATE,LEVEL 3A,3.370055804436,40.694029088396,Mandera,Success,
CN-29454,LIMURU COTTAGE HOSPITAL KENTMERE ANNEX,KIAMBU,PRIVATE,LEVEL 3B,-1.142458153456,36.624576172153,"Limuru, Kiambu",Success,
CN-29475,HEALTHY MIND CONSULTANTS LIMITED,NAIROBI,PRIVATE,LEVEL 2,-1.2965059,36.8073507,International Medical Consultants Limited,Success,
CN-29540,DID NURSING HOME LIMITED,WAJIR,PRIVATE,LEVEL 3B,1.75504011033,40.017147679353,Wajir,Success,
CN-29563,APEX MOUNTAIN HOSPITAL,MARSABIT,PRIVATE,LEVEL 3B,1.5920383,37.8029506,Hospital,Success,
CN-29611,BUNYORE MEDICAL CENTRE LIMITED,VIHIGA,PRIVATE,LEVEL 3A,0.080745,34.6029238,"Bunyore, Vihiga",Success,
CN-29623,MEDIBLESS HEALTHCARE LIMITED,NAROK,PRIVATE,LEVEL 2,-1.257270424837,35.575800972424,Narok,Success,
CN-29669,MASAANTARE MEDICAL &amp; DIAGNOSTIC CENTRE,NAROK,PRIVATE,LEVEL 3A,-1.257270424837,35.575800972424,Narok,Success,
CN-29684,ELIMAT GROUP NURSING HOME(BUKHAKUNGA) LIMITED,KAKAMEGA,PRIVATE,LEVEL 3A,0.28422,34.75229,Kakamega,Success,
CN-29748,KATAM MEDICAL CENTRE LIMITED,BARINGO,PRIVATE,LEVEL 2,0.671904478344,35.940931127722,Baringo,Success,
CN-29767,EMBU CHILDREN HOSPITAL,EMBU,PRIVATE,LEVEL 5,-0.5379964,37.4543311,Embu,Success,
CN-29776,ROYAL VICTORIA HOSPITAL YALA,SIAYA,PRIVATE,LEVEL 3B,0.0868294,34.5445186,"Yala, Siaya",Success,
CN-29792,JOLELIAN HEALTHCARE CENTRE,NAIROBI,PRIVATE,LEVEL 3A,-1.3345659,36.8334263,Imara Healthcare Centre,Success,
CN-29803,UPLANDS PLANET MEDICAL CENTRE,KIAMBU,PRIVATE,LEVEL 2,-1.0398384,36.6397782,"Uplands, Kiambu",Success,
CN-29824,BETH MEDICAL SERVICES,KISII,PRIVATE,LEVEL 3A,-0.775814232663,34.777005852014,Kisii,Success,
CN-29834,TURBO MOUNTAIN VIEW CLINIC,UASIN GISHU,PRIVATE,LEVEL 2,0.58031737897,35.140858399304,"Turbo, Uasin Gishu",Success,
CN-29847,LENMEK CLINIC,KISII,PRIVATE,LEVEL 2,-0.775814232663,34.777005852014,Kisii,Success,
CN-29920,RFH SPECIALIST HOSPITAL,NAIROBI,PRIVATE,LEVEL 5,-1.2888132,36.7979592,Garden Specialist Hospital,Success,
CN-29968,ACK ST.LUKES MISSION NURSING HOME,KILIFI,PRIVATE,LEVEL 3B,-3.176503150822,39.68804728776,Kilifi,Success,
CN-29987,STIRLING MEDICAL CENTRE,BUSIA,PRIVATE,LEVEL 3B,0.38569164205,34.193072581938,Busia,Success,
CN-30044,STAR CHILDREN HOSPITAL,KISUMU,PRIVATE,LEVEL 3A,-0.0875255,34.7724442,Obama Children's Hospital,Success,
CN-30065,NENO OPTICIANS LIMITED,KIAMBU,PRIVATE,LEVEL 2,-1.1672396,36.8255013,Kiambu,Success,
CN-30090,JEMINDAS NURSING HOME LIMITED,NAIROBI,PRIVATE,LEVEL 3B,-1.2857857,36.8200253,Nairobi,Success,
CN-30106,THE KINGS MEDICAL CLINIC,NAKURU,PRIVATE,LEVEL 3A,-0.2989828,36.067634,Al-Gadhir Medical Clinic,Success,
CN-30134,MARK TUMAINI MEDICAL CENTRE - KIRURA,KIAMBU,PRIVATE,LEVEL 3B,-1.2134912,36.7617444,"Karura, Kiambaa, Kiambu",Success,
CN-30145,THE AGA KHAN UNIVERSITY HOSPITAL NAIROBI,NAIROBI,PRIVATE,LEVEL 6B,-1.2622252,36.8236366,Aga Khan University Hospital - Nairobi,Success,
CN-30159,KOMAROCK MODERN HEALTHCARE UTAWALA,NAIROBI,PRIVATE,LEVEL 5,-1.2857857,36.8200253,Nairobi,Success,
CN-30207,GRANDLIVE MEDICAL CENTRE,NAIROBI,PRIVATE,LEVEL 3A,-1.31244,36.79729,Medical Centre,Success,
CN-30220,OLYMUS HEALTHCARE CENTER LTD,KAKAMEGA,PRIVATE,LEVEL 2,0.28422,34.75229,Kakamega,Success,
CN-30238,TEDRAYNER MEMORIAL CLINIC LIMITED,HOMA BAY,PRIVATE,LEVEL 2,-0.545235884388,34.356395993113,Homa Bay,Success,
CN-30246,SOLOTA NURSING HOME LIMITED,MANDERA,PRIVATE,LEVEL 3A,3.370055804436,40.694029088396,Mandera,Success,
CN-30356,KERIO HOSPITAL LIMITED,BARINGO,PRIVATE,LEVEL 3A,0.4937027,35.742332,Kerio Hospital,Success,
CN-30371,MAMA MARIA CLINIC,MIGORI,PRIVATE,LEVEL 3B,-0.8471809,34.1848542,Clinic,Success,
CN-30406,CHEBON MEDICAL CENTRE,BUNGOMA,PRIVATE,LEVEL 3A,0.748950071987,34.640152743934,Bungoma,Success,
CN-30442,AL RAHMAN NURSING HOME LTD,MANDERA,PRIVATE,LEVEL 3B,3.370055804436,40.694029088396,Mandera,Success,
CN-30474,KILGOWEST MEDICAL AND DENTAL CLINIC,NAROK,PRIVATE,LEVEL 2,-1.257270424837,35.575800972424,Narok,Success,
CN-30494,HOPKINS MEDICAL CENTRE,KIAMBU,PRIVATE,LEVEL 3A,-1.0363673,37.0724379,Prime Medical Centre,Success,
CN-30507,CHALIANA MEDICAL CENTRE,MOMBASA,PRIVATE,LEVEL 3B,-4.0574645,39.663945,Mombasa,Success,
CN-30508,K.P.A BANDARI STAFF CLINIC,MOMBASA,PRIVATE,LEVEL 3A,-4.0574645,39.663945,Mombasa,Success,
CN-30512,PRECISE DIAGNOSTIC IMAGING,NAIROBI,PRIVATE,LEVEL 3A,-1.2857857,36.8200253,Nairobi,Success,
CN-30543,TAHLIL WELLNESS CENTRE,MANDERA,PRIVATE,LEVEL 3A,3.370055804436,40.694029088396,Mandera,Success,
CN-30581,BURHAN NURSING HOME,NAIROBI,PRIVATE,LEVEL 4,-1.313721,36.8283941,South C Nursing Home,Success,
CN-30600,GEDIAN FAMILY HEALTHCARE,KISUMU,PRIVATE,LEVEL 2,-0.173053648767,34.839859182104,Kisumu,Success,
CN-30720,ITIBO CURECENTRE AND MATERNITY HOSPITAL LIMITED,KISII,PRIVATE,LEVEL 3A,-0.775814232663,34.777005852014,Kisii,Success,
CN-30722,SELACARE HEALTH SERVICES,NAIROBI,PRIVATE,LEVEL 4,-1.2843292,36.8210593,AAR Health Services,Success,
CN-30750,CLACE LA VARDE MEDICAL CLINIC,SAMBURU,PRIVATE,LEVEL 2,2.0959323,36.9183338,Clinic,Success,
CN-30763,NYABURI BETTER LIVING NURSING HOME-NAMBA LIMITED,MIGORI,PRIVATE,LEVEL 3A,-0.7229627,34.5955541,"Nyaburu, Migori",Success,
CN-30773,OPTEX OPTICIANS LIMITED - KISII,KISII,PRIVATE,LEVEL 2,-0.68174,34.76666,Kisii,Success,
CN-30787,EVENING MEDICAL CENTRE,BUNGOMA,PRIVATE,LEVEL 2,0.748950071987,34.640152743934,Bungoma,Success,
CN-30801,INDEX MEDICAL SERVICES,NAIROBI,PRIVATE,LEVEL 3B,-1.2701309,36.8348377,Meco Medical Services,Success,
CN-30845,CHEPTIREET SPRINGS MEDICAL CLINIC,UASIN GISHU,PRIVATE,LEVEL 2,0.3549383,35.3550177,"Cheptiret, Uasin Gishu",Success,
CN-30863,ALIF MEDICAL CENTRE,NAIROBI,PRIVATE,LEVEL 2,-1.31244,36.79729,Medical Centre,Success,
CN-30870,NEEMA SATIMA MEDICAL CENTRE LIMITED,LAIKIPIA,PRIVATE,LEVEL 2,0.321036458859,36.76507926291,Laikipia,Success,
CN-30871,AKEDEJOE FAMILY THERAPY AND COTTAGE HOSPITAL LIMITED,NAROK,PRIVATE,LEVEL 3A,-1.257270424837,35.575800972424,Narok,Success,
CN-30901,EQUITY AFIA KITALE,TRANS-NZOIA,PRIVATE,LEVEL 3B,1.01572,35.00622,"Kitale, Trans Nzoia",Success,
CN-30924,ALFATAH MEDICAL CLINIC,TAITA-TAVETA,PRIVATE,LEVEL 3B,-3.436547605259,38.417882139111,Taita Taveta,Success,
CN-30963,MODERN ABERDARE VIEW HOSPITAL LIMITED,MURANGA,PRIVATE,LEVEL 4,-0.7180943,37.1589456,"Muranga, Murang'a",Success,
CN-30964,GREENWOOD COTTAGE COMMUNITY HOSPITAL LIMITED,THARAKA-NITHI,PRIVATE,LEVEL 3B,-0.206516213429,37.868692128983,Tharaka-Nithi,Success,
CN-30993,BUKAAN DEEQ NURSING HOME LIMITED,MANDERA,PRIVATE,LEVEL 4,3.370055804436,40.694029088396,Mandera,Success,
CN-31011,JUJA ROAD MATERNITY HOSPITAL LIMITED- RUIRU,KIAMBU,PRIVATE,LEVEL 4B,-1.1480309,36.9605921,"Ruiru, Kiambu",Success,
CN-31038,IGORERA MEDICAL CLINIC,KISII,PRIVATE,LEVEL 3B,-0.820578,34.732977,Quiners Medical Clinic,Success,
CN-31041,NILE NURSING HOME LTD,NAIROBI,PRIVATE,LEVEL 3B,-1.313721,36.8283941,South C Nursing Home,Success,
CN-31056,MIGORI HEALTH STATION,MIGORI,PRIVATE,LEVEL 2,-1.0635852,34.4729174,Migori,Success,
CN-31084,NEPTUNE HEALTHCARE LTD,NYAMIRA,PRIVATE,LEVEL 3A,-0.640626239534,34.967387947932,Nyamira,Success,
CN-31112,BLISS HEALTHCARE LTD WOTE,MAKUENI,PRIVATE,LEVEL 3B,-1.7802424,37.6274808,"Wote, Makueni",Success,
CN-31153,HALCYON HEALTHCARE LIMITED,NAIROBI,PRIVATE,LEVEL 4B,-1.3049235,36.8324167,Beta Health Care Limited,Success,
CN-31205,BAYAAN NURSING HOME,WAJIR,PRIVATE,LEVEL 4,1.75504011033,40.017147679353,Wajir,Success,
CN-31222,ROMIEVA MEDICAL CENTRE LTD,KISII,PRIVATE,LEVEL 4,-0.775814232663,34.777005852014,Kisii,Success,
CN-31295,ABAKORE NURSING HOME LIMITED,WAJIR,PRIVATE,LEVEL 3B,1.75504011033,40.017147679353,Wajir,Success,
CN-31299,KISII GALAXY MEDICARE CENTRE,KISII,PRIVATE,LEVEL 3B,-0.775814232663,34.777005852014,Kisii,Success,
CN-31364,FOUNTAIN HEALTHCARE LIMITED,UASIN GISHU,PRIVATE,LEVEL 5,0.5112091,35.2903394,Fountain Health Care Hospital,Success,
CN-31432,AMINA COMMUNITY HOSPITAL CENTRE LIMITED,TAITA-TAVETA,PRIVATE,LEVEL 3A,-3.436547605259,38.417882139111,Taita Taveta,Success,
CN-31443,AFYA BORA MEDICAL CLINIC MUTOMO,KITUI,PRIVATE,LEVEL 3B,-1.8479488,38.2078427,"Mutomo, Kitui",Success,
CN-31449,SHAFSHAFEY NURSING HOME,MANDERA,PRIVATE,LEVEL 3A,3.93617,41.76769,Shafshafe,Success,
CN-31523,LONDON MEDICAL CENTRE,NAKURU,PRIVATE,LEVEL 2,-0.2845127,36.0695371,Meridian Medical Centre,Success,
CN-31564,MANDERA WELLNESS CENTRE,MANDERA,PRIVATE,LEVEL 4,3.9369015,41.8595383,Mandera,Success,
CN-31574,TUMAINI MATERNITY &amp; NURSING HOME,MAKUENI,PRIVATE,LEVEL 3B,-2.160192128139,37.789123486634,Makueni,Success,
CN-31594,TIGONI TREATMENT & REHAB CENTER LTD,KIAMBU,PRIVATE,LEVEL 3A,-1.1672396,36.8255013,Kiambu,Success,
CN-31596,KAPSONGOI DISPENSARY,KERICHO,PRIVATE,LEVEL 2,-0.3693063,35.1760372,Dispensary,Success,
CN-31601,NGURUBANI MEDICAL SERVICES - GATEGI,EMBU,PRIVATE,LEVEL 3B,-0.75,37.5,"Gategi, Embu",Success,
CN-31623,RAVINE GLORY HOSPITAL LIMITED-MOGOTIO TOWN,BARINGO,PRIVATE,LEVEL 4,0.169852630589,35.98075185466,"Mogotio, Baringo",Success,
CN-31645,BAHATI HOSPITAL JOSKA BRANCH,MACHAKOS,PRIVATE,LEVEL 3B,-1.279605613208,37.413530961083,Machakos,Success,
CN-31646,THE GABANO HOSPITAL,MANDERA,PRIVATE,LEVEL 3B,3.370055804436,40.694029088396,Mandera,Success,
CN-31654,UJAMAA LIKONI NURSING HOME USENGE,SIAYA,PRIVATE,LEVEL 3B,-0.0669955,34.0579876,"Usenge, Siaya",Success,
CN-31731,HAWI GENTLE CARE DENTAL CLINIC LTD,KISUMU,PRIVATE,LEVEL 2,-0.173053648767,34.839859182104,Kisumu,Success,
CN-31732,DAY TO DAY NURSING HOME LIMITED,MANDERA,PRIVATE,LEVEL 3B,3.370055804436,40.694029088396,Mandera,Success,
CN-31747,JUSON HOSPITAL -EKONA,KISII,PRIVATE,LEVEL 3A,-0.775814232663,34.777005852014,Kisii,Success,
CN-31756,BROOKS OF CHERITH MEDICAL AND NUTRITION CENTRE LIMITED NYANDARUA,NYANDARUA,PRIVATE,LEVEL 4,-0.5406177,36.6100659,Nyandarua,Success,
CN-31784,THE MODERN LIBERTY HOSPITAL LIMITED,KITUI,PRIVATE,LEVEL 3B,-1.493161090519,38.407478986946,Kitui,Success,
CN-31788,RAMATA NURSING HOME LTD,MARSABIT,PRIVATE,LEVEL 3B,3.59107,38.63221,"Ramata, Marsabit",Success,
CN-31793,NAMENYA CFW CLINIC,BUSIA,PRIVATE,LEVEL 2,0.1,33.96667,Namenya,Success,
CN-31878,ELDORET HOSPITAL-KERICHO BRANCH,KERICHO,PRIVATE,LEVEL 3A,-0.371206268499,35.280174515117,"Hospital Road, Kericho",Success,
CN-31879,WABERI HOSPITAL LTD,GARISSA,PRIVATE,LEVEL 3A,-0.4459246,39.652735,Garissa,Success,
CN-31903,THE GRAND MTWAPA HOSPITAL LTD,KILIFI,PRIVATE,LEVEL 3B,-3.946128,39.7450722,"Mtwapa, Kilifi",Success,
CN-31948,RUKUBI MEDICAL CARE,KIAMBU,PRIVATE,LEVEL 2,-1.2320215,36.70347,"Rukubi, Kabete, Kiambu",Success,
CN-31952,EQUITY AFIA LIMITED KIKUYU,KIAMBU,PRIVATE,LEVEL 3B,-1.2483129,36.6647816,"Kikuyu, Kiambu",Success,
CN-31975,LIZZY CLINICA HEALTHCARE,NAIROBI,PRIVATE,LEVEL 2,-1.2861836,36.8447974,Clinic,Success,
CN-31998,ETHIL MEDICAL SERVICES LIMITED,GARISSA,PRIVATE,LEVEL 3B,-0.4459246,39.652735,Garissa,Success,
CN-32010,PANAFRIC UNIVERSAL HOSPITAL LIMITED,KIAMBU,PRIVATE,LEVEL 3A,-1.1672396,36.8255013,Kiambu,Success,
CN-32103,ST.JOHN'S HOSPITAL LIMITED - JUJA,KIAMBU,PRIVATE,LEVEL 3B,-1.1893106,37.1163669,"Juja, Kiambu",Success,
CN-32121,WAJIR MEDICAL NURSING ZONE LIMITED,WAJIR,PRIVATE,LEVEL 3B,1.7471,40.05732,Wajir,Success,
CN-32140,JAMII CLINICAL SERVICES CLINIC,SIAYA,PRIVATE,LEVEL 2,-0.06564696176,34.248353736491,Siaya,Success,
CN-32183,THE ROYAL KINGS MEDICAL CENTER,BUSIA,PRIVATE,LEVEL 2,0.38569164205,34.193072581938,Busia,Success,
CN-32234,THIKA ROAD HEALTH SERVICES LTD,NAIROBI,PRIVATE,LEVEL 3B,-1.2857857,36.8200253,Nairobi,Success,
CN-32322,RAPHA HOSPITAL &amp; CLINICS,UASIN GISHU,PRIVATE,LEVEL 4,0.419072,35.3833414,Hospital,Success,
CN-32349,WALDIRI MEDICAL CENTRE LIMITED,MANDERA,PRIVATE,LEVEL 3A,3.370055804436,40.694029088396,Mandera,Success,
CN-32357,SMILE MORE DENTAL CLINIC,KIAMBU,PRIVATE,LEVEL 3A,-1.1672396,36.8255013,Kiambu,Success,
CN-32378,TUNDANI PRIME MEDICAL CENTRE LIMITED,LAMU,PRIVATE,LEVEL 3A,-2.04751898275,40.788910863388,Lamu,Success,
CN-32403,KITENGELA MEDICAL SERVICES LIMITED-ENKASITI,KAJIADO,PRIVATE,LEVEL 2,-1.5502963,36.9382239,"Kitengela, Kajiado",Success,
CN-32439,NJORO HUDUMA MEDICAL CLINIC NAKURU,NAKURU,PRIVATE,LEVEL 3B,-0.2806559,36.0794189,Nakuru,Success,
CN-32440,RANGWE HOMETOWN MEDICAL CLINIC,HOMA BAY,PRIVATE,LEVEL 3A,-0.555574221761,34.581189926065,"Rangwe, Homa Bay",Success,
CN-32448,WEMA HEALTHCARE KENYA,KISUMU,PRIVATE,LEVEL 3B,-0.03333,34.76667,"Konya, Kisumu",Success,
CN-32526,OASIS DOCTORS PLAZA KAKAMEGA LIMITED,KAKAMEGA,PRIVATE,LEVEL 4,0.28422,34.75229,Kakamega,Success,
CN-32553,ICO-CARE HEALTH CLINIC,KAKAMEGA,PRIVATE,LEVEL 2,0.28422,34.75229,Kakamega,Success,
CN-32562,OPTIMUM CARE HOSPITAL LTD,WAJIR,PRIVATE,LEVEL 3B,1.75504011033,40.017147679353,Wajir,Success,
CN-32579,SHAMSU HEALTHCARE LTD,GARISSA,PRIVATE,LEVEL 3B,-0.4459246,39.652735,Garissa,Success,
CN-32588,RASMI NURSING HOME LIMITED,MANDERA,PRIVATE,LEVEL 3B,3.370055804436,40.694029088396,Mandera,Success,
CN-32695,EL-SIHA MEDICAL CENTRE LIMITED,MANDERA,PRIVATE,LEVEL 3A,3.370055804436,40.694029088396,Mandera,Success,
CN-32728,LABIB HOSPITAL,NAIROBI,PRIVATE,LEVEL 5,-1.302816508735,36.809301579489,"Hospital Road, Kibra",Success,
CN-32729,ST GABRIEL HOSPITAL LIMITED,KERICHO,PRIVATE,LEVEL 4,-0.296882276918,35.307304593825,Kericho,Success,
CN-32735,MEDSTOPS HEALTHCARE KENYA,NYAMIRA,PRIVATE,LEVEL 4,-0.640626239534,34.967387947932,Nyamira,Success,
CN-32772,QUEENS & KINGS ACCURATE HEALTH CENTRE,KIRINYAGA,PRIVATE,LEVEL 3B,-0.525012949373,37.320744609382,Kirinyaga,Success,
CN-32798,S.T JOSEPHS NYANSIONGO HEALTH CENTRE,NYAMIRA,PRIVATE,LEVEL 4,-0.7581151,35.0152909,"Nyansiongo, Nyamira",Success,
CN-32809,MEDICATION THERAPY MANAGEMENT LIMITED (MTM),KIAMBU,PRIVATE,LEVEL 3B,-1.1672396,36.8255013,Kiambu,Success,
CN-32814,NG\\'UONO MEDICAL CENTRE,HOMA BAY,PRIVATE,LEVEL 3B,-0.5146224,34.7334287,Eldamador Medical Centre,Success,
CN-32822,MURITHI METHO OPTOMETRIST,EMBU,PRIVATE,LEVEL 2,-0.5379964,37.4543311,Embu,Success,
CN-32834,SUNA NURSING AND MATERNITY HOME,MIGORI,PRIVATE,LEVEL 3A,-1.0706878,34.4661791,Suna Nursing & Maternity Home,Success,
CN-32848,EQUITY AFIA DONHOLM,NAIROBI,PRIVATE,LEVEL 3A,-1.2914538,36.8856535,"Doonholm, Embakasi West, Nairobi",Success,
CN-32850,THE AGA KHAN HEALTH SERVICES KENYA-BOMET MEDICAL CENTRE,BOMET,PRIVATE,LEVEL 3B,-0.72064302304,35.297853151752,Bomet,Success,
CN-32878,BLISSFAM HOSPITAL,KILIFI,PRIVATE,LEVEL 3B,-3.6153628,39.852311,Hospital,Success,
CN-32904,JOYRIDE MEDICAL CENTRE,NYAMIRA,PRIVATE,LEVEL 4,-0.640626239534,34.967387947932,Nyamira,Success,
CN-32911,OLCHOBOSEI MEDICAL CENTRE,NAROK,PRIVATE,LEVEL 3A,-1.257270424837,35.575800972424,Narok,Success,
CN-32915,GWA-KUNGU HEALTH SERVICES,NYANDARUA,PRIVATE,LEVEL 2,-0.323536777902,36.481864588175,Nyandarua,Success,
CN-32947,AKM HEALTH CENTRE LTD,KIRINYAGA,PRIVATE,LEVEL 3B,-0.6307349,37.359998,Health Centre,Success,
CN-32993,FIRST COMMUNITY HOSPITAL MLOLONGO,MACHAKOS,PRIVATE,LEVEL 3B,-1.39639,36.94028,"Mlolongo, Machakos",Success,
CN-33052,TUMTICHA MEDICAL CENTRE LIMITED,MANDERA,PRIVATE,LEVEL 3A,3.370055804436,40.694029088396,Mandera,Success,
CN-33058,THE TRANQUIL HOSPITAL LIMITED,KAKAMEGA,PRIVATE,LEVEL 3B,0.28422,34.75229,Kakamega,Success,
CN-33064,SUNVIEW MATERNITY & NURSING HOME,KIAMBU,PRIVATE,LEVEL 3A,-1.1672396,36.8255013,Kiambu,Success,
CN-33098,AVOCENT HEALTHCARE LIMITED,NAIROBI,PRIVATE,LEVEL 3B,-1.3049235,36.8324167,Beta Health Care Limited,Success,
CN-33124,KWA NGANGA MEDICARE CENTRE LTD,MURANGA,PRIVATE,LEVEL 3B,-0.7180943,37.1589456,"Muranga, Murang'a",Success,
CN-33139,AVI-CARE MEDICAL CENTER LTD,THARAKA-NITHI,PRIVATE,LEVEL 2,-0.206516213429,37.868692128983,Tharaka-Nithi,Success,
CN-33165,AMOYO HEALTHCARE MEDICAL CLINIC,SIAYA,PRIVATE,LEVEL 2,-0.06564696176,34.248353736491,Siaya,Success,
CN-33231,SIDAI BAARE CLINIC,NAROK,PRIVATE,LEVEL 3A,-1.257270424837,35.575800972424,Narok,Success,
CN-33446,THE MINUTE MEDICAL CLINIC,NAKURU,PRIVATE,LEVEL 2,-0.2989828,36.067634,Al-Gadhir Medical Clinic,Success,
CN-33453,LODWAR TUMAINI MEDICAL SERVICES,TURKANA,PRIVATE,LEVEL 4,3.11988,35.59642,"Lodwar, Turkana",Success,
CN-33491,SHAJACARE MEDICAL CENTRE,VIHIGA,PRIVATE,LEVEL 2,0.080244585317,34.730720378013,Vihiga,Success,
CN-33512,AGE-WELL CLINICS LIMITED,NAIROBI,PRIVATE,LEVEL 3B,-1.2857857,36.8200253,Nairobi,Success,
CN-33513,QUICK HOPE MEDICAL SERVICES,UASIN GISHU,PRIVATE,LEVEL 2,0.521314476021,35.31977624114,Uasin Gishu,Success,
CN-33580,RED SEAS NURSING AND MATERNITY HOME-CLINIC,KISII,PRIVATE,LEVEL 2,-0.774588,34.945153,Keroka Maternity and Nursing Home,Success,
CN-33599,DAMIANA HEALTH MEDICAL CENTRE,NAKURU,PRIVATE,LEVEL 2,-0.2806559,36.0794189,Nakuru,Success,
CN-33607,BLISS HEALTHCARE LTD - WESTLANDS,NAIROBI,PRIVATE,LEVEL 3A,-1.2651922,36.8047738,"Westlands, Nairobi",Success,
CN-33652,SARMAN MEDICAL CENTER LIMITED,WAJIR,PRIVATE,LEVEL 3A,1.75504011033,40.017147679353,Wajir,Success,
CN-33675,MATIBABU FOUNDATION HOSPITAL UKWALA,SIAYA,PRIVATE,LEVEL 4,0.1924719,34.1901769,"Ukwala, Siaya",Success,
CN-33692,MILANO SPENSER MEDICAL CENTRE,MERU,PRIVATE,LEVEL 2,0.166838927273,37.764590845633,Meru,Success,
CN-33706,INLAND MEDICAL HEALTH CENTRE LIMITED,NAIROBI,PRIVATE,LEVEL 3B,-1.2657918,36.7991336,Health Centre,Success,
CN-33715,TOPCARE NURSING HOME,KAJIADO,PRIVATE,LEVEL 4,-1.8419404,36.7892723,Kajiado,Success,
CN-33773,THAGANA COUNTY MEDICAL CENTRE,KIRINYAGA,PRIVATE,LEVEL 4,-0.525012949373,37.320744609382,Kirinyaga,Success,
CN-33804,BORDERPOINT MEDICAL CENTER LIMITED,MARSABIT,PRIVATE,LEVEL 4,2.980491275449,37.570848791063,Marsabit,Success,
CN-33820,BODAKI MEDICARE LIMITED,NAIROBI,PRIVATE,LEVEL 3A,-1.2857857,36.8200253,Nairobi,Success,
CN-33824,MEDFORCE MEDICAL CENTRE,MIGORI,PRIVATE,LEVEL 3B,-0.989136495207,34.364493855317,Migori,Success,
CN-33832,AFRICA INUKA HOSPITAL LTD-KISUMU,KISUMU,PRIVATE,LEVEL 3A,-0.10221,34.76171,Kisumu,Success,
CN-33834,BETHANIA MEDICAL CENTRE,NAKURU,PRIVATE,LEVEL 3B,-0.2806559,36.0794189,Nakuru,Success,
CN-33841,SIMAHO MCH/FP CLINIC,GARISSA,PRIVATE,LEVEL 3A,-0.4459246,39.652735,Garissa,Success,
CN-33877,NEW HOPE MEDICARE CENTRE,NANDI,PRIVATE,LEVEL 3B,0.182680842869,35.108710560862,Nandi,Success,
CN-33888,DAWIDA MATERNITY & NURSING HOME,TAITA-TAVETA,PRIVATE,LEVEL 3B,-3.4188755,38.3023312,"Dabida, Taita Taveta",Success,
CN-33889,SONAR IMAGING CENTRE MERU,MERU,PRIVATE,LEVEL 3A,0.046389,37.6527529,Meru,Success,
CN-33891,ST. JOSEPHINE MARA HOSPITAL,NAKURU,PRIVATE,LEVEL 3B,-0.2806559,36.0794189,Nakuru,Success,
CN-33896,KELSA FAMILY CLINIC,NAKURU,PRIVATE,LEVEL 2,-0.2806559,36.0794189,Nakuru,Success,
CN-33902,ALPHIL MEDICAL CENTRE LIMITED- KABURWO,NAKURU,PRIVATE,LEVEL 3A,-0.2806559,36.0794189,Nakuru,Success,
CN-33905,ALUNGU GOF NURSING HOME,MANDERA,PRIVATE,LEVEL 3A,3.9352641,41.8527175,Al-Siha Nursing Home,Success,
CN-33955,KERUGOYA MEDICAL CENTRE LIMITED-KERUGOYA TOWN CLINIC,KIRINYAGA,PRIVATE,LEVEL 2,-0.525012949373,37.320744609382,Kirinyaga,Success,
CN-33987,SILVER OAK HOSPITAL LIMITED,KIRINYAGA,PRIVATE,LEVEL 2,-0.525012949373,37.320744609382,Kirinyaga,Success,
CN-34013,WAJIR MEDICAL CENTRE LIMITED,WAJIR,PRIVATE,LEVEL 3A,1.7471,40.05732,Wajir,Success,
CN-34085,HURUMA TELE MEDICAL CLINIC,KILIFI,PRIVATE,LEVEL 2,-3.176503150822,39.68804728776,Kilifi,Success,
CN-34094,LADOPHARMA NURSING HOME LIMITED,MIGORI,PRIVATE,LEVEL 4,-0.989136495207,34.364493855317,Migori,Success,
CN-34105,QOROBO MEDICARE CENTER LIMITED,MANDERA,PRIVATE,LEVEL 3A,3.370055804436,40.694029088396,Mandera,Success,
CN-34136,BULLA POWER MEDICAL CENTRE LIMITED,MANDERA,PRIVATE,LEVEL 3B,3.370055804436,40.694029088396,Mandera,Success,
CN-34145,BWANA NI MWEMA MEDICAL CENTRE,MIGORI,PRIVATE,LEVEL 4,-0.989136495207,34.364493855317,Migori,Success,
CN-34173,ADVENT MEDICARE &amp; MATERNITY CENTER,NAKURU,PRIVATE,LEVEL 3B,-0.2806559,36.0794189,Nakuru,Success,
CN-34183,CARLIFONIA MEDICAL CENTRE,HOMA BAY,PRIVATE,LEVEL 3A,-0.545235884388,34.356395993113,Homa Bay,Success,
CN-34227,LAKUM NURSING HOME LIMITED,MANDERA,PRIVATE,LEVEL 3A,3.370055804436,40.694029088396,Mandera,Success,
CN-34228,KING DAVIDS MEDIDENT CLINIC,BOMET,PRIVATE,LEVEL 2,-0.72064302304,35.297853151752,Bomet,Success,
CN-34272,AL-FIRDAUS HEALTH CARE,MOMBASA,PRIVATE,LEVEL 3B,-4.0574645,39.663945,Mombasa,Success,
CN-34273,BECHIGA MEDICAL CENTRE,MOMBASA,PRIVATE,LEVEL 3B,-4.0574645,39.663945,Mombasa,Success,
CN-34325,MEGALIFE HOSPITAL LIMITED-JOSKA,MACHAKOS,PRIVATE,LEVEL 2,-1.279605613208,37.413530961083,Machakos,Success,
CN-34364,NEO-SOLUTIONS MEDICAL CENTRE,MAKUENI,PRIVATE,LEVEL 3A,-2.160192128139,37.789123486634,Makueni,Success,
CN-34379,DAWIDA MEDICAL SERVICES,TAITA-TAVETA,PRIVATE,LEVEL 2,-3.4188755,38.3023312,"Dabida, Taita Taveta",Success,
CN-34418,ASTER POINT HOSPITAL LTD,NAIROBI,PRIVATE,LEVEL 3B,-1.302816508735,36.809301579489,"Hospital Road, Kibra",Success,
CN-34637,DHIRRE MEDICAL AND EYE CLINIC,ISIOLO,PRIVATE,LEVEL 2,1.009414834849,38.539540438792,Isiolo,Success,
CN-34647,SKYLARMAT MEDICAL CENTRE,NAIROBI,PRIVATE,LEVEL 3A,-1.31244,36.79729,Medical Centre,Success,
CN-34690,VIRGINIA WRIGHT DISPENSARY,NANDI,PRIVATE,LEVEL 2,0.0283887,34.8233027,Dispensary,Success,
CN-34709,MEDSTAR CLINICS-MOSOCHO,KISII,PRIVATE,LEVEL 3B,-0.5874836,34.7338087,"Mosocho, Kisii",Success,
CN-34733,PALA COMMUNITY MEDICAL CLINIC,HOMA BAY,PRIVATE,LEVEL 2,-0.7250456,34.3717652,Clinic,Success,
CN-34797,AFYA POINT MEDICARE LIMITED,KERICHO,PRIVATE,LEVEL 2,-0.296882276918,35.307304593825,Kericho,Success,
CN-34825,WAJIR NURSING HOME,WAJIR,PRIVATE,LEVEL 3B,1.7471,40.05732,Wajir,Success,
CN-34826,PRECIOUS LIFE HEALTHCARE LTD,MERU,PRIVATE,LEVEL 2,0.166838927273,37.764590845633,Meru,Success,
CN-34855,MERCY MISSION MEDICAL CENTRE,NAIROBI,PRIVATE,LEVEL 3B,-1.31244,36.79729,Medical Centre,Success,
CN-34879,ANTALIYA HOSPITAL LIMITED,GARISSA,PRIVATE,LEVEL 4,-0.4459246,39.652735,Garissa,Success,
CN-34885,MUSADBII NURSING HOME LIMITED,MANDERA,PRIVATE,LEVEL 3B,3.370055804436,40.694029088396,Mandera,Success,
CN-34936,WOMEN\\'S INITIATIVE HEALTH CARE SERVICES,GARISSA,PRIVATE,LEVEL 3A,-0.4717391,39.6451061,Womens Initiative Health Care Unit,Success,
CN-34962,MIKINDANI HOSPITAL,MOMBASA,PRIVATE,LEVEL 4,-4.063253,39.672312,Medanta Africare,Success,
CN-35064,INTERNATIONAL OPTICA,MOMBASA,PRIVATE,LEVEL 2,-4.0603162,39.6558067,Auto Cats International,Success,
CN-35089,LIMURU VALLEY - MED DIAGNOSTIC CENTER LIMITED-JAMII,KIAMBU,PRIVATE,LEVEL 3A,-1.1672396,36.8255013,Kiambu,Success,
CN-35125,HODHAN NURSING HOME LIMITED,WAJIR,PRIVATE,LEVEL 3B,1.75504011033,40.017147679353,Wajir,Success,
CN-35147,PENEZA HEALTHCARE LIMITED,MIGORI,PRIVATE,LEVEL 4,-0.989136495207,34.364493855317,Migori,Success,
CN-35189,ANKA HOSPITAL - ISIOLO,ISIOLO,PRIVATE,LEVEL 4,0.3527779,37.5849123,Hospital,Success,
CN-35202,EAGLE HEALTH AND CLINIC SERVICES,NAIROBI,PRIVATE,LEVEL 4,-1.2857857,36.8200253,Nairobi,Success,
CN-35240,PLAINSVIEW NURSING HOME LTD,KIAMBU,PRIVATE,LEVEL 4,-1.1672396,36.8255013,Kiambu,Success,
CN-35255,CANCER CARE KENYA LIMITED,NAIROBI,PRIVATE,LEVEL 4B,-1.2857857,36.8200253,Nairobi,Success,
CN-35263,MABU MEDICARE LIMITED,MARSABIT,PRIVATE,LEVEL 3A,2.980491275449,37.570848791063,Marsabit,Success,
CN-35319,AFYA MEDICAL CLINIC AND NURSING HOME,WAJIR,PRIVATE,LEVEL 3B,1.75504011033,40.017147679353,Wajir,Success,
CN-35347,CHEMASE MEDICAL CENTRE,UASIN GISHU,PRIVATE,LEVEL 3A,0.521314476021,35.31977624114,Uasin Gishu,Success,
CN-35374,KASGUNGA COMMUNITY CLINIC,HOMA BAY,PRIVATE,LEVEL 2,-0.48333,34.28333,"Kasagunga, Homa Bay",Success,
CN-35416,CHERANGANY NURSING HOME-TOWN CLINIC,TRANS-NZOIA,PRIVATE,LEVEL 3A,1.024885033707,35.190002887464,"Cherangany, Trans Nzoia",Success,
CN-35452,EQUITY AFIA KAYOLE,NAIROBI,PRIVATE,LEVEL 3A,-1.27616,36.91379,"Kayole, Nairobi",Success,
CN-35461,SOGLE NURSING HOME,MANDERA,PRIVATE,LEVEL 4,3.9352641,41.8527175,Al-Siha Nursing Home,Success,
CN-35462,BUTE NURSING HOME,WAJIR,PRIVATE,LEVEL 4,1.75504011033,40.017147679353,Wajir,Success,
CN-35481,NEBO HEALTH SOLUTIONS LTD,NYERI,PRIVATE,LEVEL 3B,-0.4211516,36.9494066,Nyeri,Success,
CN-35505,SUAM WEMA MEDICAL CENTRE,KILIFI,PRIVATE,LEVEL 2,-3.9159737,39.5828209,Medical Centre,Success,
CN-35524,SIKHENDU MEDICAL CLINIC,TRANS-NZOIA,PRIVATE,LEVEL 3A,0.835521,34.8658376,Shikhendu Medical Clinic,Success,
CN-35539,ROSAMA MEDICAL SERVICES,KAJIADO,PRIVATE,LEVEL 3A,-1.8419404,36.7892723,Kajiado,Success,
CN-35585,CIALA HOSPITAL KISUMU LIMITED,KISUMU,PRIVATE,LEVEL 3A,-0.10221,34.76171,Kisumu,Success,
CN-35600,THE GOLDEN HEART HOSPITAL,HOMA BAY,PRIVATE,LEVEL 3A,-0.4054331,34.6717252,Hospital,Success,
CN-35617,SILOAM HOSPITAL LIMITED-MEDICAL CENTRE LITEIN,KERICHO,PRIVATE,LEVEL 3A,-0.5828383,35.1908492,"Litein, Kericho",Success,
CN-35638,OPTEX OPTICIANS LIMITED,NAIROBI,PRIVATE,LEVEL 2,-1.2857857,36.8200253,Nairobi,Success,
CN-35642,NEBO HEALTHCARE LIMITED,KISII,PRIVATE,LEVEL 3A,-0.775814232663,34.777005852014,Kisii,Success,
CN-35652,CHEMIN MEDICAL CLINIC,KISII,PRIVATE,LEVEL 3B,-0.820578,34.732977,Quiners Medical Clinic,Success,
CN-35738,CITY POINT GROUP OF HOSPITALS LIMITED,KAJIADO,PRIVATE,LEVEL 4,-1.8419404,36.7892723,Kajiado,Success,
CN-35777,BENEDETTO HEALTH CENTRE,KILIFI,PRIVATE,LEVEL 3B,-3.5449924,39.521976,Health Centre,Success,
CN-35782,ESTHER MEMORIAL MATENITY &amp; NURSING HOME,NAKURU,PRIVATE,LEVEL 3B,-0.2806559,36.0794189,Nakuru,Success,
CN-35796,PRECIOUS LIFE MEDICAL SERVICES,KWALE,PRIVATE,LEVEL 2,-4.148612987152,39.155718067611,Kwale,Success,
CN-35836,MARYHILL MEDICAL CENTRE,LAIKIPIA,PRIVATE,LEVEL 3B,0.321036458859,36.76507926291,Laikipia,Success,
CN-35857,GARI-HILLS HEALTHCARE LIMITED,MANDERA,PRIVATE,LEVEL 3B,3.370055804436,40.694029088396,Mandera,Success,
CN-35871,THE CLIN-EVE HOSPITAL,MERU,PRIVATE,LEVEL 2,0.2289212,37.9464346,Hospital,Success,
CN-35894,BIN-BARAKAT MEDICAL CENTRE LIMITED,NAIROBI,PRIVATE,LEVEL 3B,-1.25996,36.86057,Baraka Medical Center,Success,
CN-35914,HEMA MEDICAL CLINIC,VIHIGA,PRIVATE,LEVEL 2,0.080244585317,34.730720378013,Vihiga,Success,
CN-35962,DOMILINE MEDICAL CENTRE LIMITED,KISII,PRIVATE,LEVEL 3B,-0.775814232663,34.777005852014,Kisii,Success,
CN-35983,AFYA HEALTH SYSTEMS ORGANIZATION,HOMA BAY,PRIVATE,LEVEL 3A,-0.545235884388,34.356395993113,Homa Bay,Success,
CN-35986,HYNAX MEDICAL CENTRE,NYAMIRA,PRIVATE,LEVEL 2,-0.640626239534,34.967387947932,Nyamira,Success,
CN-35993,FIG TREE HEALTH OPTIONS KERICHO LTD,KERICHO,PRIVATE,LEVEL 2,-0.296882276918,35.307304593825,Kericho,Success,
CN-36046,PHARMACOSY MEDICAL CENTRE KEGATI,KISII,PRIVATE,LEVEL 3B,-0.808938,34.7297,Mananasi Medical Centre - Pharmacy,Success,
CN-36093,NEW BUSIA MATERNITY & NURSING HOME,BUSIA,PRIVATE,LEVEL 4,0.4645192,34.1021511,Busia,Success,
CN-36107,MALIFISA HOSPITAL LIMITED,GARISSA,PRIVATE,LEVEL 3B,-0.4459246,39.652735,Garissa,Success,
